TimeMS,BestBid,BestAsk,Velocity,Acceleration,Spread,BidV1,BidV2,BidV3,BidV4,BidV5,AskV1,AskV2,AskV3,AskV4,AskV5
5330472,1.16383,1.16390,0.00000,0.00000,7.0,750000,1000000,110200000,0,0,250000,500000,10000000,0,0
5330856,1.16383,1.16390,0.00000,0.00000,7.0,750000,1500000,20200000,0,0,250000,500000,10200000,0,0
5331374,1.16385,1.16392,0.00000,0.00000,7.0,500000,250000,20000000,0,0,500000,1010000,100000,0,0
5331590,1.16383,1.16390,0.00000,0.00000,7.0,250000,1000000,110200000,0,0,250000,500000,20200000,0,0
5331831,1.16383,1.16390,0.00000,0.00000,7.0,250000,1000000,110200000,0,0,250000,500000,20000000,0,0
5333583,1.16385,1.16392,0.00000,0.00000,7.0,500000,250000,20000000,0,0,500000,1000000,140000,0,0
5333919,1.16383,1.16390,0.00000,0.00000,7.0,250000,1000000,110200000,0,0,250000,500000,20000000,0,0
5334072,1.16383,1.16390,0.00000,0.00000,7.0,1250000,5010000,10000000,0,0,250000,500000,20000000,0,0
5334255,1.16383,1.16390,0.00000,0.00000,7.0,250000,1000000,110200000,0,0,250000,500000,20000000,0,0
5334597,1.16386,1.16392,0.09872,0.09872,6.8,500000,250000,20000000,0,0,500000,1000000,200000,0,0
5334942,1.16383,1.16390,0.07897,-0.01974,6.9,250000,1000000,10200000,0,0,250000,500000,20000000,0,0
5335457,1.16383,1.16390,0.07897,-0.01974,6.9,1250000,5010000,10000000,0,0,250000,500000,20000000,0,0
5335796,1.16386,1.16392,0.06318,-0.01579,6.7,500000,1250000,100200000,0,0,500000,1000000,280000,0,0
5335955,1.16385,1.16392,0.44698,0.38380,6.8,500000,250000,20000000,0,0,500000,1000000,280000,0,0
5336589,1.16388,1.16395,0.96548,0.51851,6.8,500000,1250000,100000000,0,0,500000,1000000,320000,0,0
5336997,1.16388,1.16395,0.96548,0.51851,6.8,500000,250000,20000000,0,0,500000,1000000,360000,0,0
5337493,1.16388,1.16395,0.96548,0.51851,6.8,500000,250000,20000000,0,0,500000,1000000,380000,0,0
5337972,1.16386,1.16393,1.06203,0.09655,6.8,250000,1000000,110200000,0,0,250000,500000,20000000,0,0
5338693,1.16388,1.16395,0.84963,-0.21241,6.8,500000,250000,20000000,0,0,500000,1000000,460000,0,0
5339363,1.16388,1.16395,0.84963,-0.21241,6.8,500000,250000,20000000,0,0,500000,1000000,500000,0,0
5339812,1.16386,1.16393,1.03716,0.18754,6.8,250000,1000000,110200000,0,0,250000,500000,20000000,0,0
5340153,1.16388,1.16395,0.82973,-0.20743,6.9,500000,250000,20000000,0,0,500000,1028000,200000,0,0
5341165,1.16388,1.16395,0.82973,-0.20743,6.9,500000,250000,20000000,0,0,500000,1031000,20200000,0,0
5341336,1.16385,1.16392,1.17097,0.34124,6.9,750000,500000,40000000,0,0,250000,531000,20000000,0,0
5341561,1.16386,1.16393,1.22087,0.04990,6.9,500000,250000,20000000,0,0,500000,1032000,20200000,0,0
5341738,1.16385,1.16391,1.41833,0.19747,6.8,500000,250000,30000000,0,0,250000,533000,20000000,0,0
5342031,1.16386,1.16393,1.34766,-0.07067,6.8,500000,250000,20000000,0,0,500000,1034000,20200000,0,0
5342312,1.16384,1.16391,1.44867,0.10101,6.8,250000,1000000,110200000,0,0,250000,500000,20700000,0,0
5342469,1.16384,1.16391,1.44867,0.10101,6.8,750000,1500000,20200000,0,0,250000,536000,20000000,0,0
5343374,1.16385,1.16391,1.25310,-0.19557,6.8,500000,250000,30000000,0,0,250000,500000,20780000,0,0
5344366,1.16385,1.16391,1.25310,-0.19557,6.8,500000,250000,30000000,0,0,250000,500000,20840000,0,0
5344765,1.16384,1.16391,1.07421,-0.17888,6.8,750000,1500000,120200000,0,0,250000,500000,20860000,0,0
5345260,1.16385,1.16391,0.85937,-0.21484,6.8,500000,250000,30000000,0,0,250000,500000,20000000,0,0
5345550,1.16384,1.16391,0.73352,-0.12585,6.8,750000,500000,40200000,0,0,250000,500000,20900000,0,0
5345794,1.16385,1.16391,0.68622,-0.04730,6.7,500000,250000,30000000,0,0,250000,500000,20000000,0,0
5346092,1.16384,1.16391,0.54897,-0.13724,6.8,750000,500000,40200000,0,0,250000,500000,20940000,0,0
5346532,1.16385,1.16391,0.43918,-0.10979,6.7,500000,250000,30000000,0,0,250000,500000,20000000,0,0
5347393,1.16385,1.16391,0.43918,-0.10979,6.7,500000,250000,30000000,0,0,247000,500000,20000000,0,0
5347691,1.16384,1.16391,0.43770,-0.00148,6.7,750000,500000,40200000,0,0,247000,553000,20000000,0,0
5347936,1.16384,1.16391,0.43770,-0.00148,6.7,750000,1500000,120200000,0,0,250000,500000,21060000,0,0
5348445,1.16384,1.16391,0.43770,-0.00148,6.7,750000,500000,40200000,0,0,250000,555000,20000000,0,0
5348669,1.16384,1.16391,0.43770,-0.00148,6.7,750000,1500000,20200000,0,0,250000,556000,20000000,0,0
5349618,1.16384,1.16391,0.43770,-0.00148,6.7,750000,1500000,20200000,0,0,250000,559000,20000000,0,0
5350575,1.16384,1.16391,0.43770,-0.00148,6.7,750000,1500000,20200000,0,0,250000,562000,20000000,0,0
5351574,1.16384,1.16391,0.43770,-0.00148,6.7,750000,1500000,20200000,0,0,250000,565000,20000000,0,0
5352570,1.16384,1.16391,0.43770,-0.00148,6.7,750000,1500000,20200000,0,0,250000,568000,20000000,0,0
5353568,1.16384,1.16391,0.43770,-0.00148,6.7,750000,1500000,20200000,0,0,250000,571000,20000000,0,0
5354370,1.16384,1.16391,0.43770,-0.00148,6.7,750000,1500000,20200000,0,0,250000,574000,20000000,0,0
5355361,1.16384,1.16391,0.43770,-0.00148,6.7,750000,1500000,20200000,0,0,250000,577000,20000000,0,0
5356373,1.16384,1.16391,0.35016,-0.08754,6.7,750000,1500000,20200000,0,0,250000,581000,20200000,0,0
5356973,1.16384,1.16390,0.29090,-0.05926,6.7,499000,250000,20000000,0,0,250000,582000,20200000,0,0
5357927,1.16384,1.16390,0.29090,-0.05926,6.7,500000,250000,20000000,0,0,249000,586000,20200000,0,0
5358929,1.16384,1.16390,0.29090,-0.05926,6.7,500000,250000,20000000,0,0,250000,589000,20200000,0,0
5359836,1.16384,1.16390,0.29090,-0.05926,6.7,500000,250000,20000000,0,0,250000,593000,20200000,0,0
5360769,1.16384,1.16390,0.29090,-0.05926,6.7,500000,250000,20000000,0,0,250000,596000,20200000,0,0
5361565,1.16384,1.16390,0.29090,-0.05926,6.7,500000,250000,20000000,0,0,250000,599000,20200000,0,0
5362436,1.16384,1.16390,0.29090,-0.05926,6.7,500000,250000,20000000,0,0,250000,602000,20200000,0,0
5363201,1.16383,1.16390,0.24877,-0.04213,6.7,750000,1510000,20000000,0,0,250000,104000,10000000,0,0
5363526,1.16384,1.16390,0.19902,-0.04975,6.7,500000,250000,20000000,0,0,250000,606000,20200000,0,0
5364463,1.16383,1.16390,0.15921,-0.03980,6.7,750000,1000000,110200000,0,0,250000,609000,40200000,0,0
5365277,1.16383,1.16390,0.15921,-0.03980,6.7,750000,1510000,20000000,0,0,250000,111000,10000000,0,0
5366081,1.16383,1.16390,0.15921,-0.03980,6.7,750000,1510000,20000000,0,0,250000,114000,10000000,0,0
5367169,1.16383,1.16390,0.15921,-0.03980,6.7,750000,1510000,20000000,0,0,250000,118000,10000000,0,0
5368068,1.16383,1.16390,0.15921,-0.03980,6.7,750000,1510000,20000000,0,0,250000,121000,10000000,0,0
5369092,1.16383,1.16390,0.15921,-0.03980,6.7,750000,1510000,20000000,0,0,250000,124000,10000000,0,0
5369964,1.16383,1.16390,0.15921,-0.03980,6.7,750000,1000000,110200000,0,0,250000,627000,40200000,0,0
5370816,1.16383,1.16390,0.15921,-0.03980,6.7,750000,1000000,110200000,0,0,250000,629000,40000000,0,0
5371764,1.16383,1.16390,0.15921,-0.03980,6.7,750000,1000000,110200000,0,0,250000,633000,40200000,0,0
5372571,1.16383,1.16390,0.15921,-0.03980,6.7,750000,1000000,110200000,0,0,250000,636000,40200000,0,0
5373574,1.16383,1.16390,0.15921,-0.03980,6.7,750000,1000000,110200000,0,0,250000,639000,40200000,0,0
5374586,1.16383,1.16390,0.15921,-0.03980,6.7,750000,1000000,110200000,0,0,250000,643000,40200000,0,0
5375858,1.16383,1.16390,0.15921,-0.03980,6.7,750000,1000000,110200000,0,0,250000,647000,40200000,0,0
5376767,1.16383,1.16390,0.15921,-0.03980,6.7,750000,1000000,110200000,0,0,250000,650000,40200000,0,0
5377763,1.16383,1.16390,0.15921,-0.03980,6.7,750000,1000000,110200000,0,0,250000,653000,40200000,0,0
5378573,1.16383,1.16390,0.15921,-0.03980,6.7,750000,1000000,110200000,0,0,250000,656000,40200000,0,0
5379570,1.16383,1.16390,0.15921,-0.03980,6.7,750000,1000000,110200000,0,0,250000,660000,40200000,0,0
5380379,1.16383,1.16390,0.15921,-0.03980,6.7,750000,1000000,110200000,0,0,250000,662000,40200000,0,0
5381245,1.16383,1.16390,0.15921,-0.03980,6.7,750000,1000000,110200000,0,0,250000,665000,40200000,0,0
5381465,1.16384,1.16390,0.13325,-0.02596,6.7,500000,250000,20000000,0,0,250000,666000,20200000,0,0
5382359,1.16384,1.16390,0.13325,-0.02596,6.7,500000,250000,20000000,0,0,250000,669000,20200000,0,0
5383002,1.16383,1.16390,0.17179,0.03854,6.7,750000,1000000,110200000,0,0,250000,671000,40200000,0,0
5384073,1.16383,1.16390,0.17179,0.03854,6.7,750000,1000000,110200000,0,0,250000,675000,40200000,0,0
5384993,1.16383,1.16390,0.17179,0.03854,6.7,750000,1000000,110200000,0,0,250000,679000,40200000,0,0
5385798,1.16383,1.16390,0.17179,0.03854,6.7,750000,1000000,110200000,0,0,250000,681000,40200000,0,0
5386795,1.16383,1.16390,0.17179,0.03854,6.7,750000,1000000,110200000,0,0,250000,685000,40200000,0,0
5387974,1.16383,1.16390,0.17179,0.03854,6.7,750000,1000000,110200000,0,0,250000,689000,40200000,0,0
5388989,1.16383,1.16390,0.17179,0.03854,6.7,750000,1000000,110200000,0,0,250000,693000,40200000,0,0
5390158,1.16383,1.16390,0.17179,0.03854,6.7,750000,1000000,110200000,0,0,250000,697000,40200000,0,0
5390982,1.16383,1.16390,0.17179,0.03854,6.7,750000,1000000,110200000,0,0,250000,700000,40200000,0,0
5391414,1.16384,1.16390,0.14934,-0.02245,6.7,500000,1250000,100000000,0,0,250000,701000,40200000,0,0
5392373,1.16383,1.16390,0.11947,-0.02987,6.7,750000,1000000,110200000,0,0,250000,705000,40200000,0,0
5393168,1.16383,1.16390,0.11947,-0.02987,6.7,750000,1000000,110200000,0,0,250000,707000,40200000,0,0
5394115,1.16383,1.16390,0.11947,-0.02987,6.7,750000,1000000,110200000,0,0,250000,211000,30000000,0,0
5395018,1.16383,1.16390,0.11947,-0.02987,6.7,750000,1000000,110200000,0,0,250000,214000,30000000,0,0
5395857,1.16383,1.16390,0.11947,-0.02987,6.7,750000,1000000,110200000,0,0,250000,216000,30000000,0,0
5396331,1.16384,1.16390,0.12083,0.00136,6.7,500000,1250000,100000000,0,0,250000,718000,40200000,0,0
5396568,1.16384,1.16391,0.14431,0.02348,6.7,750000,1000000,110200000,0,0,250000,500000,24380000,0,0
5396805,1.16385,1.16391,0.18329,0.03898,6.7,500000,1250000,100000000,0,0,250000,720000,40200000,0,0
5396943,1.16384,1.16391,0.19037,0.00708,6.7,250000,500000,30000000,0,0,250000,220000,30200000,0,0
5397144,1.16384,1.16391,0.19037,0.00708,6.7,750000,1000000,110200000,0,0,250000,721000,40200000,0,0
5397465,1.16384,1.16391,0.19037,0.00708,6.7,750000,1000000,110200000,0,0,250000,722000,40200000,0,0
5398276,1.16384,1.16391,0.19037,0.00708,6.7,740000,1000000,110200000,0,0,250000,225000,30000000,0,0
5398725,1.16385,1.16391,0.20841,0.01804,6.7,500000,1250000,100000000,0,0,250000,727000,40200000,0,0
5399740,1.16384,1.16391,0.26574,0.05733,6.7,750000,1000000,110200000,0,0,250000,231000,30000000,0,0
5400637,1.16384,1.16391,0.26574,0.05733,6.7,750000,1000000,110200000,0,0,250000,734000,40200000,0,0
5401483,1.16384,1.16391,0.26574,0.05733,6.7,750000,1000000,110200000,0,0,250000,736000,40200000,0,0
5402407,1.16384,1.16391,0.26574,0.05733,6.7,750000,1000000,110200000,0,0,250000,740000,40200000,0,0
5403253,1.16384,1.16391,0.26574,0.05733,6.7,750000,1500000,20200000,0,0,250000,242000,10200000,0,0
5404039,1.16384,1.16391,0.26574,0.05733,6.7,750000,1500000,20200000,0,0,250000,245000,10200000,0,0
5404956,1.16384,1.16391,0.26574,0.05733,6.7,750000,1500000,20200000,0,0,250000,248000,10200000,0,0
5405823,1.16384,1.16391,0.26574,0.05733,6.7,750000,1500000,20200000,0,0,250000,250000,10200000,0,0
5406681,1.16384,1.16391,0.26574,0.05733,6.7,750000,1500000,20200000,0,0,250000,253000,10200000,0,0
5407766,1.16384,1.16391,0.26574,0.05733,6.7,250000,500000,30000000,0,0,250000,257000,30200000,0,0
5408639,1.16384,1.16391,0.26574,0.05733,6.7,250000,500000,30000000,0,0,250000,259000,30200000,0,0
5409573,1.16384,1.16391,0.26574,0.05733,6.7,250000,500000,30000000,0,0,250000,263000,30200000,0,0
5410570,1.16384,1.16391,0.26574,0.05733,6.7,250000,500000,30000000,0,0,250000,266000,30200000,0,0
5411467,1.16384,1.16391,0.26574,0.05733,6.7,750000,1500000,20200000,0,0,250000,269000,10200000,0,0
5412377,1.16384,1.16391,0.26574,0.05733,6.7,750000,1500000,20200000,0,0,250000,272000,10200000,0,0
5413302,1.16384,1.16391,0.26574,0.05733,6.7,250000,500000,30000000,0,0,250000,776000,40200000,0,0
5414334,1.16384,1.16391,0.26574,0.05733,6.7,250000,500000,30000000,0,0,250000,778000,40200000,0,0
5415367,1.16384,1.16391,0.26574,0.05733,6.7,250000,500000,30000000,0,0,250000,783000,40200000,0,0
5415856,1.16383,1.16390,0.22500,-0.04074,6.7,750000,1510000,20000000,0,0,250000,284000,10000000,0,0
5416655,1.16383,1.16390,0.22500,-0.04074,6.7,750000,1000000,110200000,0,0,250000,787000,40200000,0,0
5417473,1.16383,1.16390,0.22500,-0.04074,6.7,250000,500000,30000000,0,0,250000,290000,30200000,0,0
5418368,1.16383,1.16390,0.22500,-0.04074,6.7,250000,500000,30000000,0,0,250000,293000,30200000,0,0
5419375,1.16383,1.16390,0.22500,-0.04074,6.7,250000,500000,30000000,0,0,250000,796000,40200000,0,0
5420197,1.16383,1.16390,0.22500,-0.04074,6.7,250000,500000,30000000,0,0,250000,299000,30200000,0,0
5421200,1.16383,1.16390,0.22500,-0.04074,6.7,750000,1500000,20200000,0,0,250000,303000,10200000,0,0
5421359,1.16381,1.16388,0.25276,0.02777,6.7,750000,1510000,20000000,0,0,250000,803000,40200000,0,0
5421557,1.16381,1.16387,0.29001,0.03724,6.7,500000,1250000,100200000,0,0,250000,500000,26080000,0,0
5422369,1.16381,1.16387,0.29001,0.03724,6.7,500000,1250000,100200000,0,0,250000,500000,6120000,0,0
5423268,1.16381,1.16387,0.29001,0.03724,6.7,500000,250000,20000000,0,0,250000,810000,200000,0,0
5423488,1.16381,1.16388,0.28379,-0.00621,6.7,500000,1250000,100200000,0,0,250000,811000,40200000,0,0
5424314,1.16381,1.16388,0.28379,-0.00621,6.7,500000,1250000,100200000,0,0,250000,813000,40200000,0,0
5425313,1.16381,1.16388,0.28379,-0.00621,6.7,500000,1250000,100200000,0,0,250000,817000,40200000,0,0
5426404,1.16381,1.16388,0.28379,-0.00621,6.7,750000,1000000,110200000,0,0,250000,822000,40200000,0,0
5427266,1.16381,1.16388,0.28379,-0.00621,6.7,750000,1000000,110200000,0,0,250000,824000,40200000,0,0
5427640,1.16383,1.16390,0.32314,0.03935,6.7,750000,1000000,110000000,0,0,250000,825000,40200000,0,0
5428583,1.16383,1.16390,0.32314,0.03935,6.7,250000,500000,30000000,0,0,250000,829000,40200000,0,0
5429380,1.16383,1.16390,0.32314,0.03935,6.7,750000,1500000,20200000,0,0,250000,831000,20200000,0,0
5430322,1.16383,1.16390,0.32314,0.03935,6.7,750000,1000000,110200000,0,0,250000,834000,40200000,0,0
5431181,1.16383,1.16390,0.32314,0.03935,6.7,750000,1510000,20000000,0,0,250000,336000,10000000,0,0
5432163,1.16383,1.16390,0.32314,0.03935,6.7,750000,1000000,110200000,0,0,250000,840000,40200000,0,0
5432986,1.16383,1.16390,0.32314,0.03935,6.7,750000,1000000,110200000,0,0,250000,843000,40200000,0,0
5434067,1.16383,1.16390,0.32314,0.03935,6.7,750000,1000000,110200000,0,0,250000,847000,40200000,0,0
5434954,1.16383,1.16390,0.32314,0.03935,6.7,750000,1000000,110200000,0,0,250000,849000,40200000,0,0
5435811,1.16383,1.16390,0.32314,0.03935,6.7,750000,1510000,20000000,0,0,250000,352000,10000000,0,0
5436647,1.16383,1.16390,0.32314,0.03935,6.7,750000,1000000,110200000,0,0,250000,855000,40200000,0,0
5436890,1.16385,1.16392,0.30178,-0.02136,6.7,500000,1000000,105000000,0,0,500000,1356000,20200000,0,0
5437056,1.16384,1.16390,0.25205,-0.04973,6.7,500000,1250000,100200000,0,0,250000,857000,40000000,0,0
5437949,1.16384,1.16391,0.39121,0.13916,6.7,250000,500000,30000000,0,0,250000,359000,30200000,0,0
5438771,1.16384,1.16391,0.39121,0.13916,6.7,750000,1000000,110200000,0,0,250000,863000,40200000,0,0
5439588,1.16384,1.16391,0.39121,0.13916,6.7,750000,1000000,110200000,0,0,250000,865000,40200000,0,0
5440397,1.16384,1.16391,0.39121,0.13916,6.7,750000,1000000,110200000,0,0,250000,868000,40200000,0,0
5441183,1.16384,1.16391,0.39121,0.13916,6.7,750000,1000000,110200000,0,0,250000,871000,40200000,0,0
5442091,1.16384,1.16391,0.39121,0.13916,6.7,750000,1000000,110200000,0,0,250000,874000,40200000,0,0
5442835,1.16383,1.16390,0.35386,-0.03735,6.7,750000,1000000,110200000,0,0,250000,376000,30000000,0,0
5443704,1.16383,1.16390,0.35386,-0.03735,6.7,750000,1000000,110200000,0,0,250000,878000,40200000,0,0
5443909,1.16383,1.16390,0.35386,-0.03735,6.7,1250000,5010000,10000000,0,0,250000,500000,27560000,0,0
5444079,1.16384,1.16390,0.36335,0.00948,6.7,500000,250000,20000000,0,0,250000,880000,200000,0,0
5445000,1.16384,1.16391,0.38310,0.01975,6.7,500000,250000,20000000,0,0,250000,383000,10200000,0,0
5446123,1.16384,1.16391,0.38310,0.01975,6.7,500000,250000,20000000,0,0,250000,386000,10200000,0,0
5447200,1.16384,1.16391,0.38310,0.01975,6.7,500000,250000,20000000,0,0,250000,390000,10200000,0,0
5447505,1.16383,1.16391,0.34640,-0.03670,6.7,750000,1510000,20000000,0,0,640000,1510000,20000000,0,0
5447916,1.16384,1.16391,0.27712,-0.06928,6.7,500000,250000,20000000,0,0,250000,392000,10200000,0,0
5448795,1.16384,1.16391,0.27712,-0.06928,6.7,500000,250000,20000000,0,0,250000,395000,10200000,0,0
5449804,1.16384,1.16391,0.27712,-0.06928,6.7,500000,250000,20000000,0,0,250000,399000,10200000,0,0
5449978,1.16383,1.16391,0.27031,-0.00681,6.7,750000,1510000,20000000,0,0,649000,1510000,20000000,0,0
5450181,1.16383,1.16391,0.27031,-0.00681,6.7,750000,1000000,110200000,0,0,250000,399000,30200000,0,0
5450497,1.16383,1.16391,0.27031,-0.00681,6.7,250000,500000,30000000,0,0,650000,1010000,110000000,0,0
5450634,1.16383,1.16390,0.28978,0.01947,6.7,750000,1000000,110200000,0,0,250000,901000,40200000,0,0
5450928,1.16383,1.16391,0.26499,-0.02479,6.8,750000,1510000,20000000,0,0,652000,1510000,20000000,0,0
5451574,1.16383,1.16390,0.27445,0.00946,6.8,750000,1500000,20200000,0,0,250000,404000,10200000,0,0
5451752,1.16383,1.16390,0.27445,0.00946,6.8,750000,1000000,110200000,0,0,250000,905000,40200000,0,0
5451964,1.16383,1.16391,0.21956,-0.05489,6.8,750000,1000000,110200000,0,0,250000,405000,30200000,0,0
5452783,1.16383,1.16391,0.21956,-0.05489,6.8,750000,1000000,110200000,0,0,250000,408000,30200000,0,0
5453728,1.16383,1.16391,0.21956,-0.05489,6.8,750000,1000000,110200000,0,0,250000,412000,30200000,0,0
5453945,1.16383,1.16390,0.22613,0.00657,6.8,750000,1500000,20200000,0,0,250000,412000,10200000,0,0
5454800,1.16383,1.16390,0.22613,0.00657,6.8,750000,1500000,20200000,0,0,250000,415000,10200000,0,0
5455858,1.16383,1.16390,0.22613,0.00657,6.8,750000,1500000,20200000,0,0,250000,420000,10200000,0,0
5456143,1.16383,1.16389,0.22648,0.00035,6.8,250000,500000,30000000,0,0,420000,1260000,100000000,0,0
5456291,1.16382,1.16389,0.26647,0.03999,6.8,250000,500000,30000000,0,0,250000,921000,40200000,0,0
5456443,1.16381,1.16388,0.37331,0.10683,6.8,750000,1000000,110200000,0,0,250000,921000,40200000,0,0
5457265,1.16381,1.16388,0.37331,0.10683,6.8,750000,1000000,110200000,0,0,250000,924000,40200000,0,0
5457850,1.16382,1.16388,0.36982,-0.00349,6.7,500000,1250000,100200000,0,0,250000,926000,40000000,0,0
5458019,1.16381,1.16388,0.29586,-0.07396,6.7,750000,1000000,110200000,0,0,250000,927000,40200000,0,0
5458461,1.16382,1.16388,0.28634,-0.00952,6.7,500000,1250000,100000000,0,0,250000,928000,40200000,0,0
5459041,1.16383,1.16390,0.62046,0.33412,6.7,500000,1000000,105000000,0,0,500000,1430000,20200000,0,0
5459885,1.16383,1.16390,0.62046,0.33412,6.7,250000,500000,30000000,0,0,250000,933000,40200000,0,0
5460810,1.16383,1.16390,0.62046,0.33412,6.7,750000,1000000,110200000,0,0,250000,936000,40200000,0,0
5461147,1.16384,1.16390,0.54381,-0.07665,6.7,500000,250000,20000000,0,0,250000,937000,40200000,0,0
5461394,1.16384,1.16391,0.52004,-0.02376,6.7,500000,1250000,100200000,0,0,250000,938000,40200000,0,0
5461830,1.16383,1.16391,0.45190,-0.06814,6.8,750000,1000000,110200000,0,0,250000,440000,30200000,0,0
5462057,1.16384,1.16391,0.42783,-0.02407,6.8,500000,250000,20000000,0,0,250000,441000,10200000,0,0
5462694,1.16383,1.16391,0.41925,-0.00858,6.8,750000,1000000,110200000,0,0,250000,443000,30200000,0,0
5463466,1.16384,1.16391,0.33540,-0.08385,6.8,500000,250000,20000000,0,0,250000,445000,10200000,0,0
5464588,1.16384,1.16391,0.33540,-0.08385,6.8,500000,250000,20000000,0,0,250000,449000,10200000,0,0
5464900,1.16383,1.16391,0.33805,0.00266,6.8,750000,1000000,110200000,0,0,250000,450000,30200000,0,0
5465321,1.16384,1.16391,0.27044,-0.06761,6.9,500000,250000,20000000,0,0,250000,452000,10200000,0,0
5465527,1.16384,1.16390,0.26488,-0.00557,6.8,500000,250000,20000000,0,0,250000,952000,20200000,0,0
5465732,1.16384,1.16390,0.26488,-0.00557,6.8,500000,1250000,100200000,0,0,250000,500000,29080000,0,0
5465894,1.16387,1.16393,0.41783,0.15296,6.8,500000,1000000,100000000,0,0,500000,1000000,9080000,0,0
5466083,1.16386,1.16393,0.75692,0.33909,6.8,500000,1000000,105200000,0,0,500000,1455000,20000000,0,0
5466437,1.16387,1.16394,1.14365,0.38673,6.8,500000,1250000,100200000,0,0,250000,956000,40200000,0,0
5466641,1.16387,1.16394,1.14365,0.38673,6.8,500000,1250000,100200000,0,0,250000,957000,40200000,0,0
5467524,1.16387,1.16394,1.14365,0.38673,6.8,750000,1000000,110200000,0,0,250000,960000,40200000,0,0
5467720,1.16387,1.16395,0.99280,-0.15085,6.9,750000,1000000,110200000,0,0,250000,460000,30200000,0,0
5468707,1.16387,1.16394,0.79424,-0.19856,6.9,250000,500000,30000000,0,0,250000,463000,30200000,0,0
5469034,1.16387,1.16395,0.63539,-0.15885,6.9,250000,500000,30000000,0,0,714000,1010000,110000000,0,0
5469270,1.16387,1.16394,0.57287,-0.06252,6.9,250000,500000,30000000,0,0,250000,465000,30200000,0,0
5469609,1.16386,1.16392,0.67724,0.10436,6.9,500000,1250000,100200000,0,0,250000,966000,40000000,0,0
5470544,1.16386,1.16393,0.69865,0.02142,6.9,750000,1510000,20000000,0,0,250000,469000,10000000,0,0
5471378,1.16386,1.16393,0.69865,0.02142,6.9,750000,1000000,110200000,0,0,250000,973000,40200000,0,0
5472351,1.16386,1.16393,0.69865,0.02142,6.9,750000,1000000,110200000,0,0,250000,975000,40200000,0,0
5473299,1.16386,1.16393,0.69865,0.02142,6.9,750000,1000000,110200000,0,0,250000,979000,40200000,0,0
5474251,1.16386,1.16393,0.69865,0.02142,6.9,750000,1510000,20000000,0,0,250000,482000,10000000,0,0
5475379,1.16386,1.16393,0.69865,0.02142,6.9,750000,1510000,20000000,0,0,250000,486000,10000000,0,0
5476213,1.16386,1.16393,0.55892,-0.13973,6.9,750000,1510000,20000000,0,0,250000,489000,10000000,0,0
5477135,1.16386,1.16393,0.55892,-0.13973,6.9,750000,1510000,20000000,0,0,250000,492000,10000000,0,0
5478052,1.16386,1.16393,0.55892,-0.13973,6.9,750000,1510000,20000000,0,0,250000,495000,10000000,0,0
5478966,1.16386,1.16393,0.55892,-0.13973,6.9,750000,1510000,20000000,0,0,250000,498000,10000000,0,0
5480013,1.16386,1.16393,0.55892,-0.13973,6.9,750000,1510000,20000000,0,0,250000,500000,10000000,0,0
5480364,1.16387,1.16393,0.47121,-0.08771,6.9,500000,250000,20000000,0,0,250000,1000000,20200000,0,0
5480515,1.16386,1.16393,0.37697,-0.09424,6.9,250000,500000,30000000,0,0,250000,500000,30200000,0,0
5481443,1.16386,1.16393,0.37697,-0.09424,6.9,750000,1000000,110200000,0,0,250000,1000000,40200000,0,0
5487025,1.16386,1.16393,0.37697,-0.09424,6.9,750000,1000000,110200000,0,0,250000,500000,30200000,0,0
5488010,1.16386,1.16393,0.37697,-0.09424,6.9,750000,1510000,20000000,0,0,250000,500000,10000000,0,0
5488786,1.16386,1.16392,0.31364,-0.06333,6.9,250000,500000,30000000,0,0,500000,1260000,100000000,0,0
5489794,1.16384,1.16391,0.54794,0.23430,6.9,750000,1000000,110200000,0,0,250000,1000000,40200000,0,0
5494310,1.16384,1.16391,0.54794,0.23430,6.9,250000,500000,30000000,0,0,250000,500000,30200000,0,0
5495214,1.16384,1.16391,0.54794,0.23430,6.9,250000,500000,30000000,0,0,250000,492000,30200000,0,0
5495522,1.16381,1.16387,0.56060,0.01266,6.9,5000000,250000,10000000,0,0,250000,500000,20000000,0,0
5495802,1.16379,1.16386,0.61496,0.05435,6.9,750000,1000000,110200000,0,0,250000,994000,40200000,0,0
5496724,1.16380,1.16387,0.57621,-0.03875,6.9,250000,500000,30000000,0,0,250000,997000,40200000,0,0
5497528,1.16380,1.16387,0.57621,-0.03875,6.9,250000,500000,30000000,0,0,250000,1000000,40200000,0,0
5499105,1.16379,1.16386,0.54441,-0.03180,6.9,750000,1000000,110200000,0,0,250000,1000000,40200000,0,0
5499992,1.16379,1.16386,0.54441,-0.03180,6.9,250000,500000,30000000,0,0,250000,500000,30200000,0,0
5504227,1.16379,1.16386,0.54441,-0.03180,6.9,750000,1000000,110200000,0,0,250000,1000000,40200000,0,0
5516439,1.16379,1.16386,0.54441,-0.03180,6.9,250000,500000,30000000,0,0,250000,500000,30200000,0,0
5518867,1.16380,1.16387,0.44565,-0.09876,6.9,250000,1000000,40000000,0,0,750000,1510000,120000000,0,0
5519077,1.16380,1.16387,0.44565,-0.09876,6.9,250000,500000,30000000,0,0,750000,1500000,120200000,0,0
5519914,1.16380,1.16387,0.44565,-0.09876,6.9,750000,1000000,110000000,0,0,250000,1000000,40200000,0,0
5521546,1.16380,1.16387,0.44565,-0.09876,6.9,250000,500000,30000000,0,0,250000,1000000,40200000,0,0
5522329,1.16381,1.16387,0.38550,-0.06014,6.9,500000,250000,20000000,0,0,250000,500000,50000000,0,0
5522486,1.16381,1.16388,0.36367,-0.02184,6.9,250000,500000,30000000,0,0,750000,1510000,100000000,0,0
5522845,1.16379,1.16386,0.34120,-0.02247,6.9,750000,1000000,110200000,0,0,250000,1000000,40200000,0,0
5523658,1.16379,1.16386,0.34120,-0.02247,6.9,250000,500000,30000000,0,0,250000,500000,30200000,0,0
5524752,1.16379,1.16386,0.34120,-0.02247,6.9,750000,1500000,20200000,0,0,250000,500000,10200000,0,0
5526123,1.16380,1.16387,0.33397,-0.00723,6.9,250000,500000,30000000,0,0,250000,1000000,40200000,0,0
5527079,1.16379,1.16386,0.26718,-0.06679,6.9,750000,1500000,20200000,0,0,250000,500000,10200000,0,0
5530020,1.16379,1.16386,0.26718,-0.06679,6.9,250000,500000,30000000,0,0,250000,500000,30200000,0,0
5536427,1.16379,1.16386,0.21374,-0.05344,7.0,750000,1500000,20200000,0,0,250000,500000,10200000,0,0
5537289,1.16379,1.16386,0.21374,-0.05344,7.0,250000,500000,10000000,0,0,750000,1510000,20000000,0,0
5538915,1.16379,1.16386,0.21374,-0.05344,7.0,750000,1500000,20200000,0,0,250000,500000,10200000,0,0
5543528,1.16377,1.16383,0.23201,0.03001,6.9,500000,1000000,10000000,0,0,500000,1010000,100000000,0,0
5544659,1.16375,1.16382,1.65863,-0.08309,6.8,750000,1000000,110000000,0,0,250000,500000,30200000,0,0
5549978,1.16375,1.16382,1.65863,-0.08309,6.8,250000,500000,30000000,0,0,750000,1500000,100200000,0,0
5553258,1.16375,1.16382,1.65863,-0.08309,6.8,250000,500000,30000000,0,0,750000,1000000,110200000,0,0
5558272,1.16375,1.16382,1.65863,-0.08309,6.8,750000,1000000,110000000,0,0,250000,500000,30200000,0,0
5559358,1.16375,1.16382,1.65863,-0.08309,6.8,250000,500000,30000000,0,0,750000,1000000,110200000,0,0
5560303,1.16375,1.16382,1.65863,-0.08309,6.8,750000,1000000,110000000,0,0,250000,500000,30200000,0,0
5563648,1.16375,1.16381,1.33217,-0.32646,6.8,250000,500000,30000000,0,0,500000,1260000,100000000,0,0
5564608,1.16372,1.16379,1.09581,-0.23636,6.8,250000,500000,30000000,0,0,250000,1000000,40200000,0,0
5564770,1.16371,1.16378,1.50109,0.40528,6.8,750000,1000000,110200000,0,0,250000,1000000,40200000,0,0
5565180,1.16373,1.16379,1.46197,-0.03912,6.8,500000,1250000,100200000,0,0,250000,500000,30000000,0,0
5566129,1.16373,1.16380,1.46413,0.00216,6.8,750000,1000000,110200000,0,0,250000,1000000,40200000,0,0
5567528,1.16373,1.16380,1.46413,0.00216,6.8,250000,500000,30000000,0,0,250000,500000,30200000,0,0
5571382,1.16373,1.16380,1.46413,0.00216,6.8,750000,1000000,110200000,0,0,250000,1000000,40200000,0,0
5576561,1.16373,1.16380,1.46413,0.00216,6.8,746000,1000000,110200000,0,0,250000,1000000,20200000,0,0
5578869,1.16373,1.16380,1.46413,0.00216,6.8,746000,1000000,110200000,0,0,250000,1000000,40200000,0,0
5580440,1.16371,1.16378,1.19926,-0.26486,6.8,500000,1500000,20000000,0,0,500000,1000000,105200000,0,0
5580613,1.16371,1.16378,1.19926,-0.26486,6.8,250000,499000,30000000,0,0,750000,1510000,120000000,0,0
5581611,1.16370,1.16377,1.12904,-0.07022,6.8,749000,1000000,110000000,0,0,250000,500000,30200000,0,0
5583064,1.16370,1.16377,1.12904,-0.07022,6.8,750000,1000000,110000000,0,0,250000,500000,30200000,0,0
5586257,1.16370,1.16377,1.12904,-0.07022,6.8,750000,1000000,110000000,0,0,250000,1000000,20200000,0,0
5591821,1.16370,1.16377,1.12904,-0.07022,6.8,750000,1000000,110000000,0,0,250000,500000,30200000,0,0
5594194,1.16370,1.16377,1.12904,-0.07022,6.8,250000,500000,30000000,0,0,750000,1000000,110200000,0,0
5595078,1.16370,1.16377,1.12904,-0.07022,6.8,750000,1000000,110000000,0,0,250000,500000,30200000,0,0
5596216,1.16370,1.16377,0.90324,-0.22581,6.8,250000,500000,30000000,0,0,750000,1000000,110200000,0,0
5597983,1.16370,1.16377,0.90324,-0.22581,6.8,750000,1000000,110000000,0,0,250000,500000,30200000,0,0
5600168,1.16370,1.16377,0.90324,-0.22581,6.8,750000,1000000,110200000,0,0,250000,2000000,120200000,0,0
5600425,1.16371,1.16378,0.77016,-0.13307,6.8,250000,500000,30000000,0,0,250000,2000000,120200000,0,0
5606321,1.16371,1.16378,0.77016,-0.13307,6.8,250000,500000,30000000,0,0,750000,1510000,120000000,0,0
5613138,1.16371,1.16377,0.62399,-0.14617,6.8,250000,1000000,40000000,0,0,500000,1250000,110200000,0,0
5616737,1.16371,1.16378,0.52699,-0.09700,6.8,250000,495000,30000000,0,0,750000,1510000,120000000,0,0
5619263,1.16370,1.16377,0.50077,-0.02622,6.8,750000,1500000,120000000,0,0,250000,1000000,20200000,0,0
5621817,1.16371,1.16378,0.47893,-0.02185,6.8,250000,500000,30000000,0,0,750000,1510000,120000000,0,0
5626238,1.16370,1.16377,0.42838,-0.05055,6.8,750000,1500000,120000000,0,0,250000,1000000,40200000,0,0
5627159,1.16370,1.16377,0.42838,-0.05055,6.8,749000,1500000,120000000,0,0,250000,1000000,40200000,0,0
5628070,1.16370,1.16377,0.42838,-0.05055,6.8,750000,1000000,110000000,0,0,250000,1000000,40200000,0,0
5630327,1.16370,1.16377,0.42838,-0.05055,6.8,250000,500000,30000000,0,0,750000,1500000,120200000,0,0
5631358,1.16370,1.16377,0.42838,-0.05055,6.8,750000,1000000,110000000,0,0,250000,1000000,40200000,0,0
5636734,1.16370,1.16377,0.42838,-0.05055,6.8,744000,1000000,110000000,0,0,250000,1000000,40200000,0,0
5638651,1.16370,1.16377,0.28762,-0.07191,6.8,750000,1000000,110000000,0,0,250000,1000000,40200000,0,0
5639463,1.16370,1.16377,0.28762,-0.07191,6.8,250000,500000,30000000,0,0,251000,1500000,110200000,0,0
5640312,1.16370,1.16376,0.28020,-0.00742,6.7,250000,500000,30000000,0,0,1000,250000,30000000,0,0
5642110,1.16370,1.16377,0.27974,-0.00045,6.7,750000,1000000,110000000,0,0,250000,500000,30200000,0,0
5645310,1.16370,1.16377,0.27974,-0.00045,6.7,750000,1000000,110000000,0,0,250000,1000000,20200000,0,0
5646112,1.16370,1.16377,0.27974,-0.00045,6.7,750000,1000000,110200000,0,0,250000,500000,30000000,0,0
5647979,1.16370,1.16377,0.27974,-0.00045,6.7,750000,1000000,110000000,0,0,250000,1000000,20200000,0,0
5656744,1.16370,1.16377,0.22380,-0.05595,6.8,749000,1000000,110000000,0,0,250000,1000000,20200000,0,0
5658934,1.16370,1.16377,0.22380,-0.05595,6.8,250000,500000,30000000,0,0,750000,1500000,100200000,0,0
5660174,1.16370,1.16377,0.22380,-0.05595,6.8,750000,1000000,110000000,0,0,250000,1000000,40200000,0,0
5661113,1.16369,1.16376,0.22481,0.00102,6.8,750000,1000000,110200000,0,0,250000,500000,30000000,0,0
5661465,1.16370,1.16376,0.20103,-0.02378,6.8,500000,1250000,100000000,0,0,250000,1000000,40200000,0,0
5661629,1.16369,1.16376,0.20177,0.00074,6.8,250000,500000,30000000,0,0,750000,1010000,110000000,0,0
5661830,1.16367,1.16374,0.27938,0.07762,6.7,500000,1000000,105200000,0,0,500000,1500000,20000000,0,0
5662002,1.16368,1.16374,0.31860,0.03922,6.7,500000,1250000,100000000,0,0,250000,1000000,40200000,0,0
5662212,1.16367,1.16374,0.61786,0.29926,6.7,250000,1000000,40000000,0,0,750000,1010000,110000000,0,0
5663089,1.16367,1.16374,0.61786,0.29926,6.7,250000,500000,30000000,0,0,750000,1500000,120200000,0,0
5666710,1.16367,1.16374,0.61786,0.29926,6.7,249000,499000,30000000,0,0,750000,1500000,120200000,0,0
5667573,1.16367,1.16374,0.61786,0.29926,6.7,750000,1000000,110200000,0,0,250000,1000000,20000000,0,0
5670413,1.16367,1.16374,0.61786,0.29926,6.7,250000,500000,30000000,0,0,250000,1000000,20200000,0,0
5672175,1.16367,1.16373,0.50433,-0.11353,6.7,250000,1000000,40000000,0,0,500000,1260000,110000000,0,0
5673168,1.16365,1.16372,0.43999,-0.06434,6.7,500000,1250000,100000000,0,0,250000,500000,30200000,0,0
5676734,1.16365,1.16372,0.43999,-0.06434,6.7,499000,1250000,100000000,0,0,250000,500000,30200000,0,0
5678952,1.16365,1.16372,0.43999,-0.06434,6.7,500000,1250000,100000000,0,0,250000,500000,30200000,0,0
5680281,1.16364,1.16372,0.36605,-0.07394,6.7,750000,1000000,110200000,0,0,750000,1000000,110200000,0,0
5681868,1.16364,1.16371,0.35581,-0.01024,6.7,750000,1000000,110200000,0,0,250000,500000,30000000,0,0
5684237,1.16364,1.16371,0.35581,-0.01024,6.7,750000,1000000,110000000,0,0,250000,500000,30200000,0,0
5686739,1.16364,1.16371,0.35581,-0.01024,6.7,749000,1000000,110000000,0,0,250000,500000,30200000,0,0
5689080,1.16364,1.16371,0.35581,-0.01024,6.7,750000,1000000,110000000,0,0,250000,500000,30200000,0,0
5690330,1.16364,1.16372,0.29648,-0.05934,6.8,750000,1000000,110000000,0,0,750000,1010000,110000000,0,0
5691207,1.16365,1.16372,0.25859,-0.03788,6.8,750000,1000000,110200000,0,0,250000,2000000,120200000,0,0
5693149,1.16359,1.16367,0.77388,0.51529,6.8,3000000,1000000,200200000,0,0,500000,1000000,100200000,0,0
5693302,1.16359,1.16367,0.77388,0.51529,6.8,750000,1000000,110200000,0,0,750000,1000000,110200000,0,0
5693486,1.16359,1.16366,1.14635,0.37246,6.8,750000,1000000,110200000,0,0,250000,500000,30000000,0,0
5694293,1.16359,1.16366,1.14635,0.37246,6.8,750000,1000000,110200000,0,0,250000,1000000,40200000,0,0
5694611,1.16360,1.16366,1.00620,-0.14014,6.8,500000,1250000,100000000,0,0,250000,1000000,20200000,0,0
5695558,1.16360,1.16367,0.90144,-0.10476,6.8,500000,1250000,100000000,0,0,250000,500000,30200000,0,0
5700264,1.16360,1.16366,0.74240,-0.15904,6.8,500000,1250000,100000000,0,0,250000,1000000,20200000,0,0
5703883,1.16360,1.16367,0.62155,-0.12085,6.8,750000,1000000,110000000,0,0,250000,1000000,20200000,0,0
5706715,1.16360,1.16367,0.62155,-0.12085,6.8,745000,1000000,110000000,0,0,250000,1000000,20200000,0,0
5707523,1.16360,1.16367,0.62155,-0.12085,6.8,750000,1000000,110000000,0,0,250000,1000000,20200000,0,0
5708795,1.16360,1.16367,0.62155,-0.12085,6.8,740000,1500000,120200000,0,0,250000,1000000,20200000,0,0
5709751,1.16360,1.16367,0.62155,-0.12085,6.8,750000,1000000,110000000,0,0,250000,1000000,20200000,0,0
5713619,1.16362,1.16368,0.52806,-0.09349,6.8,500000,1000000,105000000,0,0,500000,1500000,20200000,0,0
5714016,1.16362,1.16369,0.46193,-0.06613,6.8,750000,1000000,110000000,0,0,250000,1000000,20200000,0,0
5714202,1.16360,1.16367,0.36954,-0.09239,6.8,750000,1000000,110200000,0,0,250000,2000000,120200000,0,0
5715045,1.16360,1.16367,0.36954,-0.09239,6.8,250000,500000,30000000,0,0,750000,1000000,110200000,0,0
5715387,1.16360,1.16366,0.38010,0.01055,6.8,500000,1250000,100000000,0,0,250000,1000000,40200000,0,0
5715574,1.16359,1.16366,0.44996,0.06986,6.8,750000,1000000,110200000,0,0,250000,500000,30000000,0,0
5716492,1.16360,1.16367,0.35996,-0.08999,6.8,250000,500000,30000000,0,0,750000,1000000,110200000,0,0
5718444,1.16360,1.16367,0.35996,-0.08999,6.8,250000,500000,30000000,0,0,748000,1000000,110200000,0,0
5720162,1.16357,1.16364,0.43719,0.07722,6.8,250000,1000000,40000000,0,0,750000,1500000,120200000,0,0
5722338,1.16358,1.16365,0.59498,0.06438,6.8,250000,500000,30000000,0,0,750000,1500000,120200000,0,0
5725100,1.16358,1.16365,0.45669,-0.01930,6.8,750000,1000000,110200000,0,0,250000,500000,30000000,0,0
5725571,1.16359,1.16365,0.46185,0.00516,6.8,500000,1250000,100200000,0,0,250000,1000000,40000000,0,0
5725805,1.16362,1.16368,0.63862,0.17677,6.8,500000,1250000,100200000,0,0,250000,500000,30000000,0,0
5726295,1.16361,1.16369,1.09962,0.46101,6.8,750000,1000000,110200000,0,0,750000,1000000,110200000,0,0
5727129,1.16362,1.16369,0.95523,-0.14440,6.8,750000,1000000,110000000,0,0,250000,1000000,20200000,0,0
5727312,1.16361,1.16367,0.95911,0.00389,6.8,500000,1250000,100000000,0,0,250000,1000000,40200000,0,0
5727476,1.16360,1.16367,1.01918,0.06007,6.8,250000,500000,30000000,0,0,250000,500000,30200000,0,0
5733617,1.16360,1.16367,1.01918,0.06007,6.8,250000,500000,30000000,0,0,750000,1000000,110200000,0,0
5737307,1.16360,1.16367,1.01918,0.06007,6.8,250000,500000,30000000,0,0,250000,500000,30200000,0,0
5738719,1.16358,1.16365,0.85092,-0.16826,6.8,500000,1500000,20000000,0,0,500000,1010000,105000000,0,0
5738906,1.16357,1.16363,0.74206,-0.10886,6.8,250000,1000000,40000000,0,0,500000,1250000,100200000,0,0
5739197,1.16357,1.16363,0.74206,-0.10886,6.8,250000,1000000,40000000,0,0,500000,1260000,110000000,0,0
5739885,1.16357,1.16364,0.76817,0.02611,6.8,500000,1000000,105000000,0,0,500000,1500000,20200000,0,0
5740037,1.16356,1.16362,0.78905,0.02089,6.8,500000,1250000,100200000,0,0,250000,500000,30000000,0,0
5740279,1.16356,1.16364,0.63124,-0.15781,6.8,750000,1000000,110200000,0,0,250000,500000,30200000,0,0
5740607,1.16355,1.16362,0.67972,0.04847,6.8,750000,1000000,110200000,0,0,250000,2000000,120200000,0,0
5742405,1.16355,1.16362,0.67972,0.04847,6.8,748000,1000000,110200000,0,0,250000,2000000,120200000,0,0
5742916,1.16354,1.16361,0.63043,-0.04929,6.8,500000,1250000,100000000,0,0,250000,500000,30200000,0,0
5743729,1.16354,1.16361,0.63043,-0.04929,6.8,750000,1000000,110000000,0,0,250000,500000,30200000,0,0
5744646,1.16354,1.16361,0.63043,-0.04929,6.8,250000,500000,30000000,0,0,250000,500000,30200000,0,0
5746986,1.16354,1.16361,0.63043,-0.04929,6.8,750000,1000000,110000000,0,0,250000,1000000,40200000,0,0
5747825,1.16354,1.16361,0.63043,-0.04929,6.8,749000,1000000,110000000,0,0,250000,500000,30200000,0,0
5748727,1.16354,1.16361,0.63043,-0.04929,6.8,250000,500000,30000000,0,0,250000,1500000,110200000,0,0
5750196,1.16354,1.16361,0.63043,-0.04929,6.8,750000,1000000,110000000,0,0,250000,500000,30200000,0,0
5751073,1.16354,1.16361,0.63043,-0.04929,6.8,750000,1500000,120000000,0,0,250000,500000,30200000,0,0
5752069,1.16354,1.16361,0.63043,-0.04929,6.8,750000,500000,40000000,0,0,250000,500000,30200000,0,0
5754087,1.16354,1.16361,0.63043,-0.04929,6.8,750000,1500000,120000000,0,0,250000,500000,30200000,0,0
5756355,1.16354,1.16361,0.63043,-0.04929,6.8,749000,1500000,120000000,0,0,250000,500000,30200000,0,0
5757163,1.16354,1.16361,0.63043,-0.04929,6.8,750000,1500000,120000000,0,0,250000,500000,30200000,0,0
5762147,1.16354,1.16361,0.63043,-0.04929,6.8,750000,1000000,110000000,0,0,250000,500000,30200000,0,0
5771545,1.16354,1.16361,0.63043,-0.04929,6.8,749000,1000000,110000000,0,0,250000,500000,30200000,0,0
5773158,1.16354,1.16361,0.63043,-0.04929,6.8,250000,500000,30000000,0,0,250000,2000000,120200000,0,0
5775409,1.16353,1.16359,0.51358,-0.11685,6.8,250000,1000000,40000000,0,0,500000,1250000,110200000,0,0
5775879,1.16353,1.16360,0.41693,-0.09665,6.8,750000,1000000,110000000,0,0,250000,1000000,40200000,0,0
5776717,1.16353,1.16360,0.41693,-0.09665,6.8,250000,499000,30000000,0,0,750000,1000000,110200000,0,0
5777537,1.16353,1.16360,0.41693,-0.09665,6.8,250000,500000,30000000,0,0,750000,1000000,110200000,0,0
5778380,1.16353,1.16360,0.41693,-0.09665,6.8,250000,500000,30000000,0,0,750000,1500000,120200000,0,0
5778858,1.16355,1.16361,0.43425,0.01732,6.8,500000,1000000,105000000,0,0,500000,1000000,10000000,0,0
5779240,1.16355,1.16361,0.43425,0.01732,6.8,250000,1000000,40000000,0,0,500000,1250000,100200000,0,0
5779432,1.16354,1.16362,0.43186,-0.00239,6.8,250000,500000,30000000,0,0,750000,1010000,110000000,0,0
5779669,1.16355,1.16361,0.42464,-0.00722,6.8,500000,1250000,100000000,0,0,250000,1000000,40200000,0,0
5780679,1.16354,1.16361,0.43863,0.01398,6.8,750000,1000000,110200000,0,0,250000,1000000,40200000,0,0
5784278,1.16354,1.16361,0.43863,0.01398,6.8,250000,500000,30000000,0,0,250000,500000,30200000,0,0
5785424,1.16352,1.16358,0.45630,0.01767,6.8,500000,1250000,100200000,0,0,250000,500000,20000000,0,0
5785728,1.16352,1.16359,0.44423,-0.01207,6.8,500000,1000000,105200000,0,0,500000,1000000,10000000,0,0
5785892,1.16353,1.16360,0.39376,-0.05047,6.8,250000,500000,30000000,0,0,250000,500000,30200000,0,0
5786128,1.16352,1.16359,0.38839,-0.00537,6.8,750000,1000000,110200000,0,0,250000,1000000,20200000,0,0
5786471,1.16352,1.16358,0.31071,-0.07768,6.8,500000,1250000,100200000,0,0,250000,500000,30000000,0,0
5787401,1.16352,1.16359,0.24857,-0.06214,6.8,750000,1000000,110200000,0,0,250000,500000,30000000,0,0
5787609,1.16353,1.16360,0.46364,0.21507,6.8,500000,1250000,100000000,0,0,250000,500000,30200000,0,0
5791190,1.16353,1.16360,0.46364,0.21507,6.8,750000,1000000,110200000,0,0,250000,1000000,40200000,0,0
5791347,1.16354,1.16361,0.42453,-0.03911,6.8,250000,500000,30000000,0,0,250000,500000,30200000,0,0
5792423,1.16354,1.16361,0.42453,-0.03911,6.8,750000,1000000,110000000,0,0,250000,500000,30200000,0,0
5794767,1.16354,1.16361,0.42453,-0.03911,6.8,750000,1000000,110200000,0,0,250000,1000000,40200000,0,0
5796610,1.16354,1.16361,0.42453,-0.03911,6.8,250000,500000,30000000,0,0,250000,500000,30200000,0,0
5796849,1.16353,1.16360,0.37588,-0.04865,6.8,750000,1500000,120200000,0,0,250000,500000,30000000,0,0
5797035,1.16352,1.16358,0.38839,0.01251,6.8,494000,1250000,100200000,0,0,250000,500000,30000000,0,0
5797920,1.16352,1.16359,0.49780,0.10941,6.8,750000,1000000,110200000,0,0,250000,1000000,40200000,0,0
5807540,1.16353,1.16360,0.41903,-0.07877,6.8,750000,1000000,110200000,0,0,250000,1000000,40200000,0,0
5812232,1.16354,1.16360,0.35653,-0.06250,6.8,500000,1250000,100200000,0,0,250000,500000,30000000,0,0
5813906,1.16354,1.16361,0.34536,-0.01117,6.7,750000,1000000,110200000,0,0,250000,1000000,20200000,0,0
5814551,1.16355,1.16361,0.36264,0.01728,6.7,500000,1250000,100000000,0,0,250000,1000000,20200000,0,0
5814707,1.16358,1.16364,0.61374,0.25110,6.7,500000,1000000,100200000,0,0,1000000,500000,70000000,0,0
5814970,1.16359,1.16366,1.42383,0.81009,6.7,750000,1500000,20200000,0,0,250000,1000000,20200000,0,0
5815816,1.16359,1.16366,1.42383,0.81009,6.7,250000,500000,10000000,0,0,750000,500000,40200000,0,0
5822821,1.16359,1.16366,1.42383,0.81009,6.7,749000,1500000,20200000,0,0,250000,1000000,20200000,0,0
5823789,1.16359,1.16366,1.42383,0.81009,6.7,250000,500000,30000000,0,0,250000,1000000,40200000,0,0
5827593,1.16358,1.16365,1.15490,-0.26892,6.7,750000,1500000,120000000,0,0,250000,1000000,40200000,0,0
5828561,1.16357,1.16364,0.95335,-0.20155,6.7,750000,1500000,120200000,0,0,250000,500000,30200000,0,0
5829410,1.16357,1.16364,0.95335,-0.20155,6.7,750000,1500000,120000000,0,0,250000,500000,30200000,0,0
5832591,1.16357,1.16364,0.95335,-0.20155,6.7,750000,1000000,110000000,0,0,250000,500000,30200000,0,0
5832824,1.16358,1.16365,0.80961,-0.14374,6.8,750000,1000000,110000000,0,0,250000,500000,30200000,0,0
5833341,1.16357,1.16365,0.66861,-0.14100,6.8,750000,1000000,110200000,0,0,250000,500000,30200000,0,0
5835156,1.16357,1.16364,0.58995,-0.07866,6.8,750000,1000000,110200000,0,0,250000,1000000,20200000,0,0
5835408,1.16359,1.16366,0.61717,0.02722,6.8,750000,1000000,110200000,0,0,250000,500000,30000000,0,0
5835942,1.16360,1.16367,0.68604,0.06887,6.8,250000,500000,30000000,0,0,250000,1000000,20200000,0,0
5836507,1.16359,1.16366,0.54883,-0.13721,6.8,250000,500000,30000000,0,0,250000,500000,30200000,0,0
5841234,1.16360,1.16367,0.48138,-0.06746,6.8,250000,500000,30000000,0,0,750000,1500000,120200000,0,0
5842211,1.16359,1.16366,0.38510,-0.09628,6.8,750000,1000000,110200000,0,0,250000,500000,30000000,0,0
5845079,1.16359,1.16366,0.38510,-0.09628,6.8,250000,500000,30000000,0,0,250000,1000000,40200000,0,0
5857039,1.16360,1.16366,0.31483,-0.07028,6.8,495000,1250000,100000000,0,0,250000,1000000,40200000,0,0
5857217,1.16359,1.16366,0.25186,-0.06297,6.8,750000,1000000,110200000,0,0,250000,500000,30000000,0,0
5870160,1.16360,1.16367,0.21694,-0.03492,6.8,250000,500000,30000000,0,0,750000,1000000,110200000,0,0
5871183,1.16363,1.16370,0.76064,0.54370,6.8,250000,500000,30000000,0,0,750000,1000000,110200000,0,0
5872592,1.16361,1.16367,0.96312,0.20248,6.8,1000000,5260000,10000000,0,0,250000,500000,30000000,0,0
5873556,1.16360,1.16367,1.02334,0.06022,6.8,750000,1500000,120200000,0,0,250000,500000,30200000,0,0
5875720,1.16359,1.16366,0.91109,-0.11225,6.8,250000,500000,30000000,0,0,250000,1500000,110200000,0,0
5876738,1.16359,1.16366,0.91109,-0.11225,6.8,745000,1000000,110200000,0,0,250000,500000,30000000,0,0
5877611,1.16359,1.16366,0.91109,-0.11225,6.8,750000,1000000,110200000,0,0,250000,500000,30000000,0,0
5878680,1.16359,1.16366,0.91109,-0.11225,6.8,250000,500000,30000000,0,0,250000,500000,30200000,0,0
5879696,1.16359,1.16366,0.91109,-0.11225,6.8,250000,500000,30000000,0,0,250000,1000000,40200000,0,0
5880422,1.16361,1.16368,0.81393,-0.09717,6.8,500000,1000000,105000000,0,0,500000,1500000,20200000,0,0
5881448,1.16362,1.16369,0.84722,0.03329,6.8,750000,1000000,110000000,0,0,250000,500000,30200000,0,0
5882286,1.16362,1.16369,0.84722,0.03329,6.8,750000,1000000,110000000,0,0,250000,1000000,20200000,0,0
5882908,1.16363,1.16369,0.74608,-0.10114,6.8,500000,1250000,100000000,0,0,250000,500000,10000000,0,0
5884767,1.16363,1.16370,0.65074,-0.09534,6.8,750000,1500000,20200000,0,0,250000,500000,10200000,0,0
5885909,1.16362,1.16369,0.69588,0.04514,6.8,750000,1000000,110000000,0,0,250000,500000,30200000,0,0
5886588,1.16363,1.16370,0.55670,-0.13918,6.8,250000,499000,30000000,0,0,750000,1510000,120000000,0,0
5887712,1.16363,1.16370,0.55670,-0.13918,6.8,250000,500000,30000000,0,0,250000,1000000,40200000,0,0
5888380,1.16363,1.16369,0.50142,-0.05529,6.8,250000,1000000,40000000,0,0,500000,1250000,110200000,0,0
5889336,1.16362,1.16369,0.47447,-0.02694,6.8,250000,500000,30000000,0,0,250000,1000000,20200000,0,0
5893532,1.16361,1.16368,0.42706,-0.04741,6.8,750000,1000000,110200000,0,0,250000,500000,30000000,0,0
5894106,1.16361,1.16367,0.40432,-0.02274,6.8,500000,1250000,100200000,0,0,250000,500000,50000000,0,0
5894294,1.16362,1.16369,0.32346,-0.08086,6.8,750000,1000000,110200000,0,0,250000,500000,30000000,0,0
5895110,1.16362,1.16369,0.32346,-0.08086,6.8,750000,1510000,20000000,0,0,250000,500000,10000000,0,0
5895536,1.16363,1.16369,0.33928,0.01582,6.8,500000,250000,20000000,0,0,250000,1000000,200000,0,0
5895869,1.16363,1.16370,0.39849,0.05921,6.8,750000,1500000,20200000,0,0,250000,1000000,200000,0,0
5897118,1.16363,1.16370,0.39849,0.05921,6.8,250000,500000,10000000,0,0,750000,500000,20200000,0,0
5898118,1.16363,1.16370,0.39849,0.05921,6.8,750000,1500000,20200000,0,0,250000,1000000,200000,0,0
5898967,1.16363,1.16370,0.39849,0.05921,6.8,250000,500000,30000000,0,0,250000,1000000,20200000,0,0
5900047,1.16363,1.16370,0.39849,0.05921,6.8,750000,1000000,110200000,0,0,250000,1000000,40200000,0,0
5901026,1.16364,1.16371,0.35765,-0.04084,6.8,250000,500000,10000000,0,0,250000,500000,30200000,0,0
5901675,1.16365,1.16371,0.33783,-0.01982,6.8,500000,250000,20000000,0,0,250000,500000,50000000,0,0
5902280,1.16367,1.16373,0.66552,0.32769,6.7,250000,1000000,40000000,0,0,500000,1250000,110200000,0,0
5903152,1.16366,1.16373,0.73484,0.06933,6.8,750000,1000000,110000000,0,0,250000,1000000,40200000,0,0
5904532,1.16366,1.16373,0.73484,0.06933,6.8,250000,500000,30000000,0,0,750000,1500000,100200000,0,0
5906377,1.16366,1.16373,0.73484,0.06933,6.8,750000,1000000,110000000,0,0,250000,1000000,20200000,0,0
5907206,1.16366,1.16373,0.73484,0.06933,6.8,250000,500000,10000000,0,0,750000,1500000,100200000,0,0
5908017,1.16366,1.16373,0.73484,0.06933,6.8,250000,500000,10000000,0,0,750000,1500000,120200000,0,0
5908855,1.16366,1.16373,0.73484,0.06933,6.8,750000,1500000,120000000,0,0,250000,500000,30200000,0,0
5909045,1.16367,1.16375,0.63877,-0.09607,6.8,750000,1500000,120200000,0,0,250000,500000,30200000,0,0
5909233,1.16369,1.16375,0.59338,-0.04540,6.8,500000,250000,20000000,0,0,250000,1000000,40000000,0,0
5910019,1.16368,1.16375,0.53300,-0.06037,6.8,750000,1500000,120000000,0,0,250000,1000000,40200000,0,0
5910869,1.16368,1.16375,0.53300,-0.06037,6.8,250000,500000,30000000,0,0,250000,500000,30200000,0,0
5911685,1.16368,1.16375,0.53300,-0.06037,6.8,750000,1000000,110200000,0,0,250000,1000000,40200000,0,0
5912478,1.16368,1.16375,0.53300,-0.06037,6.8,750000,1000000,110000000,0,0,250000,1000000,40200000,0,0
5913300,1.16368,1.16375,0.53300,-0.06037,6.8,250000,500000,30000000,0,0,250000,1000000,40200000,0,0
5914610,1.16368,1.16375,0.53300,-0.06037,6.8,750000,1000000,110200000,0,0,250000,500000,30000000,0,0
5916637,1.16369,1.16375,0.44150,-0.09150,6.8,500000,1250000,100000000,0,0,250000,500000,30000000,0,0
5916800,1.16370,1.16377,0.41214,-0.02935,6.8,250000,500000,30000000,0,0,750000,1500000,120200000,0,0
5917816,1.16370,1.16377,0.41214,-0.02935,6.8,250000,1000000,40000000,0,0,750000,1510000,120000000,0,0
5919023,1.16369,1.16376,0.41968,0.00754,6.8,250000,1000000,40000000,0,0,250000,1000000,40200000,0,0
5920200,1.16369,1.16376,0.41968,0.00754,6.8,250000,500000,30000000,0,0,250000,1000000,40200000,0,0
5925074,1.16369,1.16376,0.41968,0.00754,6.8,250000,500000,10000000,0,0,750000,500000,40200000,0,0
5927015,1.16370,1.16377,0.36077,-0.05891,6.8,250000,500000,30000000,0,0,250000,1000000,40200000,0,0
5927931,1.16369,1.16376,0.28862,-0.07215,6.8,250000,500000,10000000,0,0,750000,1510000,120000000,0,0
5928940,1.16369,1.16376,0.28862,-0.07215,6.8,250000,500000,30000000,0,0,250000,500000,30200000,0,0
5933007,1.16369,1.16376,0.28862,-0.07215,6.8,250000,500000,10000000,0,0,750000,1510000,20000000,0,0
5936135,1.16369,1.16376,0.28862,-0.07215,6.8,750000,1500000,20200000,0,0,250000,500000,10200000,0,0
5941267,1.16369,1.16376,0.28862,-0.07215,6.8,250000,500000,30000000,0,0,250000,500000,30200000,0,0
5942263,1.16369,1.16376,0.28862,-0.07215,6.8,750000,1500000,20200000,0,0,250000,500000,10200000,0,0
5944931,1.16369,1.16376,0.28862,-0.07215,6.8,250000,500000,10000000,0,0,750000,1510000,120000000,0,0
5945269,1.16369,1.16376,0.28862,-0.07215,6.8,250000,500000,30000000,0,0,250000,500000,30200000,0,0
5950522,1.16370,1.16376,0.23532,-0.05330,6.8,500000,1250000,100200000,0,0,250000,500000,10000000,0,0
5951569,1.16373,1.16380,0.85556,0.62024,6.8,250000,500000,30000000,0,0,250000,500000,30200000,0,0
5953344,1.16373,1.16380,0.85556,0.62024,6.8,750000,1500000,20200000,0,0,250000,500000,10200000,0,0
5954162,1.16373,1.16380,0.85556,0.62024,6.8,250000,500000,10000000,0,0,750000,510000,20000000,0,0
5957884,1.16373,1.16380,0.68445,-0.17111,6.8,250000,500000,30000000,0,0,250000,500000,30200000,0,0
5958730,1.16373,1.16380,0.68445,-0.17111,6.8,750000,1500000,20200000,0,0,250000,500000,10200000,0,0
5964403,1.16373,1.16380,0.68445,-0.17111,6.8,750000,1000000,110200000,0,0,250000,1000000,20200000,0,0
5967700,1.16374,1.16381,0.57282,-0.11162,6.8,750000,1500000,20200000,0,0,250000,500000,10200000,0,0
