TimeMS,BestBid,BestAsk,Velocity,Acceleration,Spread,BidV1,BidV2,BidV3,BidV4,BidV5,AskV1,AskV2,AskV3,AskV4,AskV5
4070766,6906.51,6907.11,0.00000,0.00000,60.0,100,150,4000,0,0,100,150,4000,0,0
4071748,6906.76,6907.36,0.00000,0.00000,60.0,100,150,4000,0,0,100,150,4000,0,0
4072895,6906.51,6907.11,0.00000,0.00000,60.0,100,150,4000,0,0,100,150,4000,0,0
4074176,6906.26,6906.86,0.00000,0.00000,60.0,100,150,4000,0,0,100,150,4000,0,0
4074833,6906.01,6906.61,0.00000,0.00000,60.0,100,150,4000,0,0,100,150,4000,0,0
4075093,6906.26,6906.86,2.27583,2.27583,60.0,100,150,4000,0,0,100,150,4000,0,0
4075356,6906.13,6906.73,4.02033,1.74450,60.0,100,150,4000,0,0,100,150,4000,0,0
4075517,6906.26,6906.86,3.21626,-0.80407,60.0,100,150,4000,0,0,100,150,4000,0,0
4078421,6906.01,6906.61,4.29477,1.07851,60.0,100,150,4000,0,0,100,150,4000,0,0
4078714,6906.26,6906.86,3.43582,-0.85895,60.0,100,150,4000,0,0,100,150,4000,0,0
4080199,6906.01,6906.61,6.09986,2.66404,60.0,100,150,4000,0,0,100,150,4000,0,0
4082523,6906.26,6906.86,7.03878,0.93892,60.0,100,150,4000,0,0,100,150,4000,0,0
4083462,6906.01,6906.61,5.63103,-1.40776,60.0,100,150,4000,0,0,100,150,4000,0,0
4083998,6905.26,6905.86,18.00010,12.36907,60.0,100,150,4000,0,0,100,150,4000,0,0
4086590,6905.01,6905.61,16.33806,-1.66204,60.0,100,150,4000,0,0,100,150,4000,0,0
4089898,6905.01,6905.61,16.33806,-1.66204,60.0,100,150,4000,0,0,100,150,4000,0,0
4090848,6905.26,6905.86,14.24086,-2.09720,60.0,100,150,4000,0,0,100,150,4000,0,0
4091213,6905.01,6905.61,11.39269,-2.84817,60.0,100,150,4000,0,0,100,150,4000,0,0
4092009,6904.76,6905.36,17.72742,6.33473,60.0,100,150,4000,0,0,100,150,4000,0,0
4093182,6904.51,6905.11,18.45544,0.72802,60.0,100,150,4000,0,0,100,150,4000,0,0
4095993,6904.26,6904.86,16.55006,-1.90537,60.0,100,150,4000,0,0,100,150,4000,0,0
4096444,6903.76,6904.36,17.85260,1.30253,60.0,100,150,4000,0,0,100,150,4000,0,0
4096760,6903.51,6904.11,19.89533,2.04273,60.0,100,150,4000,0,0,100,150,4000,0,0
4096963,6903.26,6903.86,22.52827,2.63294,60.0,100,150,4000,0,0,100,150,4000,0,0
4097384,6903.01,6903.61,35.86701,13.33874,60.0,100,150,4000,0,0,100,150,4000,0,0
4097961,6903.51,6904.11,28.69361,-7.17340,60.0,100,150,4000,0,0,100,150,4000,0,0
4098359,6903.26,6903.86,22.95489,-5.73872,60.0,100,150,4000,0,0,100,150,4000,0,0
4099441,6903.01,6903.61,22.99354,0.03865,60.0,100,150,4000,0,0,100,150,4000,0,0
4100241,6903.26,6903.86,18.39483,-4.59871,60.0,100,150,4000,0,0,100,150,4000,0,0
4103172,6903.01,6903.61,16.42002,-1.97481,60.0,100,150,4000,0,0,100,150,4000,0,0
4104107,6903.26,6903.86,13.13602,-3.28400,60.0,100,150,4000,0,0,100,150,4000,0,0
4104379,6903.51,6904.11,18.79382,5.65780,60.0,100,150,4000,0,0,100,150,4000,0,0
4107621,6903.76,6904.36,16.57731,-2.21651,60.0,100,150,4000,0,0,100,150,4000,0,0
4107972,6904.01,6904.61,16.05437,-0.52295,60.0,100,150,4000,0,0,100,150,4000,0,0
4110087,6903.76,6904.36,15.19754,-0.85682,60.0,100,150,4000,0,0,100,150,4000,0,0
4111247,6904.01,6904.61,12.15803,-3.03951,60.0,100,150,4000,0,0,100,150,4000,0,0
4111518,6903.76,6904.36,9.72643,-2.43161,60.0,100,150,4000,0,0,100,150,4000,0,0
4111991,6904.01,6904.61,10.41688,0.69046,60.0,100,150,4000,0,0,100,150,4000,0,0
4116029,6904.07,6904.67,8.63032,-1.78657,60.0,100,150,4000,0,0,100,150,4000,0,0
4116249,6903.76,6904.36,8.07604,-0.55428,60.0,100,150,4000,0,0,100,150,4000,0,0
4117233,6904.01,6904.61,7.45751,-0.61853,60.0,100,150,4000,0,0,100,150,4000,0,0
4118439,6904.26,6904.86,10.10851,2.65100,60.0,100,150,4000,0,0,100,150,4000,0,0
4119835,6904.38,6904.98,9.80600,-0.30250,60.0,100,150,4000,0,0,100,150,4000,0,0
4119997,6904.26,6904.86,7.84480,-1.96120,60.0,100,150,4000,0,0,100,150,4000,0,0
4122115,6904.51,6905.11,8.63433,0.78953,60.0,100,150,4000,0,0,100,150,4000,0,0
4122693,6904.26,6904.86,6.90747,-1.72687,60.0,100,150,4000,0,0,100,150,4000,0,0
4123052,6904.51,6905.11,7.16478,0.25731,60.0,100,150,4000,0,0,100,150,4000,0,0
4123286,6904.26,6904.86,10.00533,2.84055,60.0,100,150,4000,0,0,100,150,4000,0,0
4126502,6903.76,6904.36,11.11178,1.10645,60.0,100,150,4000,0,0,100,150,4000,0,0
4127079,6903.51,6904.11,12.84200,1.73021,60.0,100,150,4000,0,0,100,150,4000,0,0
4128464,6903.26,6903.86,13.87590,1.03391,60.0,100,150,4000,0,0,100,150,4000,0,0
4128663,6903.51,6904.11,11.10072,-2.77518,60.0,100,150,4000,0,0,100,150,4000,0,0
4129075,6903.26,6903.86,11.38183,0.28111,60.0,100,150,4000,0,0,100,150,4000,0,0
4133213,6903.51,6904.11,10.31407,-1.06776,60.0,100,150,4000,0,0,100,150,4000,0,0
4135009,6903.76,6904.36,11.03367,0.71960,60.0,100,150,4000,0,0,100,150,4000,0,0
4135781,6904.01,6904.61,12.72557,1.69190,60.0,100,150,4000,0,0,100,150,4000,0,0
4137579,6903.76,6904.36,12.96287,0.23730,60.0,100,150,4000,0,0,100,150,4000,0,0
4138115,6904.01,6904.61,10.37030,-2.59257,60.0,100,150,4000,0,0,100,150,4000,0,0
4140096,6904.26,6904.86,10.81767,0.44737,60.0,100,150,4000,0,0,100,150,4000,0,0
4141772,6904.01,6904.61,11.64457,0.82690,60.0,100,150,4000,0,0,100,150,4000,0,0
4142390,6904.26,6904.86,9.31565,-2.32891,60.0,100,150,4000,0,0,100,150,4000,0,0
4143370,6904.01,6904.61,7.45252,-1.86313,60.0,100,150,4000,0,0,100,150,4000,0,0
4147922,6904.26,6904.86,7.06092,-0.39160,60.0,100,150,4000,0,0,100,150,4000,0,0
4149707,6904.26,6904.86,7.06092,-0.39160,60.0,100,150,4000,0,0,100,150,4000,0,0
4150588,6904.01,6904.61,7.52350,0.46258,60.0,100,150,4000,0,0,100,150,4000,0,0
4151358,6904.26,6904.86,6.01880,-1.50470,60.0,100,150,4000,0,0,100,150,4000,0,0
4151761,6904.01,6904.61,4.81504,-1.20376,60.0,100,150,4000,0,0,100,150,4000,0,0
4152182,6904.26,6904.86,6.99471,2.17967,60.0,100,150,4000,0,0,100,150,4000,0,0
4152547,6904.01,6904.61,9.79745,2.80274,60.0,100,150,4000,0,0,100,150,4000,0,0
4163521,6904.26,6904.86,8.29366,-1.50378,60.0,100,150,4000,0,0,100,150,4000,0,0
4165062,6904.01,6904.61,9.90718,1.61352,60.0,100,150,4000,0,0,100,150,4000,0,0
4165451,6904.26,6904.86,7.92575,-1.98144,60.0,100,150,4000,0,0,100,150,4000,0,0
4165612,6904.01,6904.61,8.72951,0.80377,60.0,100,150,4000,0,0,100,150,4000,0,0
4166247,6904.26,6904.86,11.15375,2.42424,60.0,100,150,4000,0,0,100,150,4000,0,0
4166892,6904.51,6905.11,16.73550,5.58175,60.0,100,150,4000,0,0,100,150,4000,0,0
4167129,6904.76,6905.36,23.33535,6.59985,60.0,100,150,4000,0,0,100,150,4000,0,0
4169838,6905.01,6905.61,20.50855,-2.82681,60.0,100,150,4000,0,0,100,150,4000,0,0
4171050,6905.26,6905.86,20.53566,0.02711,60.0,100,150,4000,0,0,100,150,4000,0,0
4171239,6905.01,6905.61,16.42852,-4.10713,60.0,100,150,4000,0,0,100,150,4000,0,0
4174845,6905.26,6905.86,14.52978,-1.89874,60.0,100,150,4000,0,0,100,150,4000,0,0
4175409,6905.01,6905.61,11.62383,-2.90596,60.0,100,150,4000,0,0,100,150,4000,0,0
4175980,6905.26,6905.86,9.29906,-2.32477,60.0,100,150,4000,0,0,100,150,4000,0,0
4177569,6905.01,6905.61,10.58786,1.28880,60.0,100,150,4000,0,0,100,150,4000,0,0
4177847,6905.26,6905.86,8.47029,-2.11757,60.0,100,150,4000,0,0,100,150,4000,0,0
4179244,6905.01,6905.61,10.35277,1.88248,60.0,100,150,4000,0,0,100,150,4000,0,0
4180607,6905.26,6905.86,11.96139,1.60862,60.0,100,150,4000,0,0,100,150,4000,0,0
4184751,6905.01,6905.61,10.77510,-1.18630,60.0,100,150,4000,0,0,100,150,4000,0,0
4185866,6905.01,6905.61,10.77510,-1.18630,60.0,100,150,4000,0,0,100,150,4000,0,0
4186814,6905.01,6905.61,10.77510,-1.18630,60.0,100,150,4000,0,0,100,150,4000,0,0
4187125,6904.26,6904.86,14.93587,4.16077,60.0,100,150,4000,0,0,100,150,4000,0,0
4187770,6904.51,6905.11,15.26434,0.32848,60.0,100,150,4000,0,0,100,150,4000,0,0
4189354,6904.26,6904.86,15.36009,0.09575,60.0,100,150,4000,0,0,100,150,4000,0,0
4189631,6904.51,6905.11,12.28807,-3.07202,60.0,100,150,4000,0,0,100,150,4000,0,0
4190346,6904.76,6905.36,11.76769,-0.52038,60.0,100,150,4000,0,0,100,150,4000,0,0
4200906,6905.01,6905.61,9.88773,-1.87996,60.0,100,150,4000,0,0,100,150,4000,0,0
4204047,6905.26,6905.86,9.50254,-0.38519,60.0,100,150,4000,0,0,100,150,4000,0,0
4204766,6905.51,6906.11,10.19405,0.69151,60.0,100,150,4000,0,0,100,150,4000,0,0
4205281,6905.26,6905.86,8.15524,-2.03881,60.0,100,150,4000,0,0,100,150,4000,0,0
4206331,6905.01,6905.61,11.26802,3.11279,60.0,100,150,4000,0,0,100,150,4000,0,0
4211318,6905.26,6905.86,10.01803,-1.24999,60.0,100,150,4000,0,0,100,150,4000,0,0
4214432,6905.01,6905.61,9.62008,-0.39795,60.0,100,150,4000,0,0,100,150,4000,0,0
4218914,6905.26,6905.86,8.81263,-0.80745,60.0,100,150,4000,0,0,100,150,4000,0,0
4219488,6905.01,6905.61,7.05011,-1.76253,60.0,100,150,4000,0,0,100,150,4000,0,0
4220431,6905.26,6905.86,5.64008,-1.41002,60.0,100,150,4000,0,0,100,150,4000,0,0
4221354,6905.51,6906.11,9.87400,4.23391,60.0,100,150,4000,0,0,100,150,4000,0,0
4223558,6905.26,6905.86,10.16780,0.29380,60.0,100,150,4000,0,0,100,150,4000,0,0
4223769,6905.51,6906.11,8.13424,-2.03356,60.0,100,150,4000,0,0,100,150,4000,0,0
4223970,6905.26,6905.86,8.41944,0.28520,60.0,100,150,4000,0,0,100,150,4000,0,0
4227740,6905.51,6906.11,8.06111,-0.35833,60.0,100,150,4000,0,0,100,150,4000,0,0
4227923,6905.26,6905.86,6.44889,-1.61222,60.0,100,150,4000,0,0,100,150,4000,0,0
4233203,6904.76,6905.36,7.05269,0.60380,60.0,100,150,4000,0,0,100,150,4000,0,0
4235040,6905.01,6905.61,8.36102,1.30833,60.0,100,150,4000,0,0,100,150,4000,0,0
4236935,6904.76,6905.36,9.33152,0.97050,60.0,100,150,4000,0,0,100,150,4000,0,0
4238846,6905.01,6905.61,10.08165,0.75013,60.0,100,150,4000,0,0,100,150,4000,0,0
4239350,6905.26,6905.86,12.22332,2.14167,60.0,100,150,4000,0,0,100,150,4000,0,0
4242551,6905.76,6906.36,12.89005,0.66672,60.0,100,150,4000,0,0,100,150,4000,0,0
4243098,6906.01,6906.61,14.30246,1.41241,60.0,100,150,4000,0,0,100,150,4000,0,0
4243819,6905.76,6906.36,11.44197,-2.86049,60.0,100,150,4000,0,0,100,150,4000,0,0
4244632,6905.51,6906.11,15.68099,4.23902,60.0,100,150,4000,0,0,100,150,4000,0,0
4245764,6905.76,6906.36,16.95785,1.27686,60.0,100,150,4000,0,0,100,150,4000,0,0
4246431,6905.51,6906.11,13.56628,-3.39157,60.0,100,150,4000,0,0,100,150,4000,0,0
4248514,6905.26,6905.86,13.25572,-0.31057,60.0,100,150,4000,0,0,100,150,4000,0,0
4252478,6905.51,6906.11,11.86434,-1.39138,60.0,100,150,4000,0,0,100,150,4000,0,0
4252906,6905.76,6906.36,11.76627,-0.09807,60.0,100,150,4000,0,0,100,150,4000,0,0
4256739,6906.01,6906.61,10.71986,-1.04641,60.0,100,150,4000,0,0,100,150,4000,0,0
4260190,6906.26,6906.86,10.02181,-0.69805,60.0,100,150,4000,0,0,100,150,4000,0,0
4264424,6906.76,6907.36,10.38096,0.35915,60.0,100,150,4000,0,0,100,150,4000,0,0
4265380,6906.51,6907.11,9.26816,-1.11280,60.0,100,150,4000,0,0,100,150,4000,0,0
4269627,6906.26,6906.86,8.59294,-0.67522,60.0,100,150,4000,0,0,100,150,4000,0,0
4276959,6906.01,6906.61,7.55592,-1.03702,60.0,100,150,4000,0,0,100,150,4000,0,0
4280413,6906.26,6906.86,7.49275,-0.06317,60.0,100,150,4000,0,0,100,150,4000,0,0
4280720,6906.01,6906.61,5.99420,-1.49855,60.0,100,150,4000,0,0,100,150,4000,0,0
4281315,6906.26,6906.86,5.94399,-0.05021,60.0,100,150,4000,0,0,100,150,4000,0,0
4282814,6906.51,6907.11,8.08409,2.14010,60.0,100,150,4000,0,0,100,150,4000,0,0
4283208,6906.76,6907.36,11.74432,3.66023,60.0,100,150,4000,0,0,100,150,4000,0,0
4283737,6907.01,6907.61,15.59636,3.85205,60.0,100,150,4000,0,0,100,150,4000,0,0
4284534,6907.01,6907.61,15.59636,3.85205,60.0,100,150,4000,0,0,100,150,4000,0,0
4285034,6906.76,6907.36,16.32917,0.73281,60.0,100,150,4000,0,0,100,150,4000,0,0
4286954,6906.51,6907.11,15.66750,-0.66167,60.0,100,150,4000,0,0,100,150,4000,0,0
4299369,6906.26,6906.86,12.93687,-2.73063,60.0,100,150,4000,0,0,100,150,4000,0,0
4300158,6906.01,6906.61,11.10736,-1.82951,60.0,100,150,4000,0,0,100,150,4000,0,0
4303803,6906.26,6906.86,10.25238,-0.85498,60.0,100,150,4000,0,0,100,150,4000,0,0
4309665,6906.26,6906.86,10.25238,-0.85498,60.0,100,150,4000,0,0,100,150,4000,0,0
4310335,6906.01,6906.61,8.96784,-1.28454,60.0,100,150,4000,0,0,100,150,4000,0,0
4310540,6906.26,6906.86,7.17427,-1.79357,60.0,100,150,4000,0,0,100,150,4000,0,0
4311376,6906.26,6906.86,7.17427,-1.79357,60.0,100,150,4000,0,0,100,150,4000,0,0
4313677,6906.01,6906.61,7.33228,0.15801,60.0,100,150,4000,0,0,100,150,4000,0,0
4315817,6905.76,6906.36,8.20555,0.87327,60.0,100,150,4000,0,0,100,150,4000,0,0
4317365,6905.51,6906.11,9.79025,1.58470,60.0,100,150,4000,0,0,100,150,4000,0,0
4319341,6905.38,6905.98,9.14732,-0.64293,60.0,100,150,4000,0,0,100,150,4000,0,0
4319739,6905.26,6905.86,9.42312,0.27580,60.0,100,150,4000,0,0,100,150,4000,0,0
4320476,6905.51,6906.11,9.82925,0.40612,60.0,100,150,4000,0,0,100,150,4000,0,0
4320733,6905.26,6905.86,9.60758,-0.22166,60.0,100,150,4000,0,0,100,150,4000,0,0
4321086,6905.38,6905.98,9.46913,-0.13846,60.0,100,150,4000,0,0,100,150,4000,0,0
4322063,6905.51,6906.11,11.32343,1.85430,60.0,100,150,4000,0,0,100,150,4000,0,0
4323874,6905.26,6905.86,11.80147,0.47805,60.0,100,150,4000,0,0,100,150,4000,0,0
4324851,6905.51,6906.11,9.44118,-2.36029,60.0,100,150,4000,0,0,100,150,4000,0,0
4325792,6905.26,6905.86,7.55294,-1.88824,60.0,100,150,4000,0,0,100,150,4000,0,0
4327981,6905.51,6906.11,8.31715,0.76421,60.0,100,150,4000,0,0,100,150,4000,0,0
4330270,6905.26,6905.86,8.84095,0.52380,60.0,100,150,4000,0,0,100,150,4000,0,0
4331760,6905.01,6905.61,10.45342,1.61247,60.0,100,150,4000,0,0,100,150,4000,0,0
4332044,6904.76,6905.36,13.99654,3.54312,60.0,100,150,4000,0,0,100,150,4000,0,0
4332271,6905.01,6905.61,13.69100,-0.30554,60.0,100,150,4000,0,0,100,150,4000,0,0
4334095,6905.26,6905.86,13.69703,0.00604,60.0,100,150,4000,0,0,100,150,4000,0,0
4334501,6905.01,6905.61,10.95763,-2.73941,60.0,100,150,4000,0,0,100,150,4000,0,0
4336904,6904.76,6905.36,10.84683,-0.11079,60.0,100,150,4000,0,0,100,150,4000,0,0
4337181,6904.26,6904.86,14.28285,3.43601,60.0,100,150,4000,0,0,100,150,4000,0,0
4337693,6904.01,6904.61,17.69391,3.41106,60.0,100,150,4000,0,0,100,150,4000,0,0
4337962,6903.76,6904.36,33.13046,15.43655,60.0,100,150,4000,0,0,100,150,4000,0,0
4338933,6904.26,6904.86,30.53337,-2.59708,60.0,100,150,4000,0,0,100,150,4000,0,0
4340061,6904.76,6905.36,33.29981,2.76644,60.0,100,150,4000,0,0,100,150,4000,0,0
4340692,6904.51,6905.11,29.49536,-3.80445,60.0,100,150,4000,0,0,100,150,4000,0,0
4340920,6904.76,6905.36,28.63915,-0.85621,60.0,100,150,4000,0,0,100,150,4000,0,0
4345290,6905.01,6905.61,24.05470,-4.58445,60.0,100,150,4000,0,0,100,150,4000,0,0
4345468,6905.26,6905.86,21.44156,-2.61314,60.0,100,150,4000,0,0,100,150,4000,0,0
4346260,6905.01,6905.61,18.08906,-3.35251,60.0,100,150,4000,0,0,100,150,4000,0,0
4349789,6904.76,6905.36,15.88968,-2.19937,60.0,100,150,4000,0,0,100,150,4000,0,0
4352022,6904.51,6905.11,14.94688,-0.94280,60.0,100,150,4000,0,0,100,150,4000,0,0
4353794,6904.26,6904.86,14.78396,-0.16292,60.0,100,150,4000,0,0,100,150,4000,0,0
4357777,6904.01,6904.61,13.08219,-1.70177,60.0,100,150,4000,0,0,100,150,4000,0,0
4360575,6904.26,6904.86,12.25083,-0.83136,60.0,100,150,4000,0,0,100,150,4000,0,0
4361014,6904.26,6904.86,12.25083,-0.83136,60.0,100,150,4000,0,0,100,150,4000,0,0
4361971,6904.51,6905.11,13.39262,1.14179,60.0,100,150,4000,0,0,100,150,4000,0,0
4362807,6904.76,6905.36,15.21050,1.81788,60.0,100,150,4000,0,0,100,150,4000,0,0
4363243,6904.51,6905.11,12.16840,-3.04210,60.0,100,150,4000,0,0,100,150,4000,0,0
4366097,6904.26,6904.86,11.49901,-0.66939,60.0,100,150,4000,0,0,100,150,4000,0,0
4366566,6904.01,6904.61,12.21671,0.71770,60.0,100,150,4000,0,0,100,150,4000,0,0
4366790,6904.26,6904.86,11.19301,-1.02369,60.0,100,150,4000,0,0,100,150,4000,0,0
4367677,6904.01,6904.61,8.95441,-2.23860,60.0,100,150,4000,0,0,100,150,4000,0,0
4368246,6904.26,6904.86,7.16353,-1.79088,60.0,100,150,4000,0,0,100,150,4000,0,0
4371683,6904.76,6905.36,8.62853,1.46500,60.0,100,150,4000,0,0,100,150,4000,0,0
4373564,6904.51,6905.11,9.56523,0.93670,60.0,100,150,4000,0,0,100,150,4000,0,0
4374995,6904.76,6905.36,11.13408,1.56885,60.0,100,150,4000,0,0,100,150,4000,0,0
4378172,6905.01,6905.61,10.48058,-0.65350,60.0,100,150,4000,0,0,100,150,4000,0,0
4380065,6905.26,6905.86,11.02578,0.54519,60.0,100,150,4000,0,0,100,150,4000,0,0
4381089,6905.01,6905.61,13.70343,2.67766,60.0,100,150,4000,0,0,100,150,4000,0,0
4381861,6905.26,6905.86,10.96275,-2.74069,60.0,100,150,4000,0,0,100,150,4000,0,0
4382164,6905.51,6906.11,18.10727,7.14452,60.0,100,150,4000,0,0,100,150,4000,0,0
4382414,6905.26,6905.86,18.29389,0.18662,60.0,100,150,4000,0,0,100,150,4000,0,0
4382937,6905.01,6905.61,19.27333,0.97944,60.0,100,150,4000,0,0,100,150,4000,0,0
4385394,6905.26,6905.86,17.45449,-1.81883,60.0,100,150,4000,0,0,100,150,4000,0,0
4385832,6905.01,6905.61,13.96359,-3.49090,60.0,100,150,4000,0,0,100,150,4000,0,0
4386067,6905.51,6906.11,14.36678,0.40319,60.0,100,150,4000,0,0,100,150,4000,0,0
4392891,6905.26,6905.86,12.22657,-2.14022,60.0,100,150,4000,0,0,100,150,4000,0,0
4393654,6905.01,6905.61,11.09930,-1.12727,60.0,100,150,4000,0,0,100,150,4000,0,0
4394879,6904.51,6905.11,17.04270,5.94341,60.0,100,150,4000,0,0,100,150,4000,0,0
4396134,6904.76,6905.36,17.61823,0.57552,60.0,100,150,4000,0,0,100,150,4000,0,0
4397063,6904.51,6905.11,14.09458,-3.52365,60.0,100,150,4000,0,0,100,150,4000,0,0
4399583,6904.26,6904.86,13.25586,-0.83872,60.0,100,150,4000,0,0,100,150,4000,0,0
4400066,6904.01,6904.61,13.93026,0.67440,60.0,100,150,4000,0,0,100,150,4000,0,0
4400871,6904.26,6904.86,11.14421,-2.78605,60.0,100,150,4000,0,0,100,150,4000,0,0
4401976,6904.51,6905.11,13.41177,2.26756,60.0,100,150,4000,0,0,100,150,4000,0,0
4402465,6904.13,6904.73,12.35543,-1.05634,60.0,100,150,4000,0,0,100,150,4000,0,0
4402757,6904.26,6904.86,9.88435,-2.47109,60.0,100,150,4000,0,0,100,150,4000,0,0
4405188,6903.51,6904.11,14.07778,4.19343,60.0,100,150,4000,0,0,100,150,4000,0,0
4405811,6904.01,6904.61,12.90967,-1.16811,60.0,100,150,4000,0,0,100,150,4000,0,0
4406613,6903.76,6904.36,13.83159,0.92192,60.0,100,150,4000,0,0,100,150,4000,0,0
4406994,6903.82,6904.42,14.22404,0.39245,60.0,100,150,4000,0,0,100,150,4000,0,0
4407925,6903.76,6904.36,11.37923,-2.84481,60.0,100,150,4000,0,0,100,150,4000,0,0
4411911,6904.01,6904.61,10.35307,-1.02616,60.0,100,150,4000,0,0,100,150,4000,0,0
4412352,6903.76,6904.36,8.28246,-2.07061,60.0,100,150,4000,0,0,100,150,4000,0,0
4416415,6903.51,6904.11,7.85628,-0.42618,60.0,100,150,4000,0,0,100,150,4000,0,0
4417003,6903.26,6903.86,8.43464,0.57836,60.0,100,150,4000,0,0,100,150,4000,0,0
4417405,6903.51,6904.11,7.73703,-0.69761,60.0,100,150,4000,0,0,100,150,4000,0,0
4418217,6903.26,6903.86,6.18962,-1.54741,60.0,100,150,4000,0,0,100,150,4000,0,0
4420921,6903.51,6904.11,6.80218,0.61256,60.0,100,150,4000,0,0,100,150,4000,0,0
4422352,6903.76,6904.36,8.92849,2.12631,60.0,100,150,4000,0,0,100,150,4000,0,0
4423003,6903.51,6904.11,7.14279,-1.78570,60.0,100,150,4000,0,0,100,150,4000,0,0
4425857,6903.26,6903.86,7.51150,0.36871,60.0,100,150,4000,0,0,100,150,4000,0,0
4426303,6903.01,6903.61,9.03675,1.52525,60.0,100,150,4000,0,0,100,150,4000,0,0
4426541,6903.26,6903.86,8.64183,-0.39492,60.0,100,150,4000,0,0,100,150,4000,0,0
4426723,6903.01,6903.61,9.60092,0.95908,60.0,100,150,4000,0,0,100,150,4000,0,0
4428192,6902.76,6903.36,11.07978,1.47887,60.0,100,150,4000,0,0,100,150,4000,0,0
4431060,6903.01,6903.61,10.60720,-0.47258,60.0,100,150,4000,0,0,100,150,4000,0,0
4432878,6902.76,6903.36,11.23301,0.62581,60.0,100,150,4000,0,0,100,150,4000,0,0
4433849,6903.01,6903.61,8.98641,-2.24660,60.0,100,150,4000,0,0,100,150,4000,0,0
4438082,6902.76,6903.36,8.37060,-0.61581,60.0,100,150,4000,0,0,100,150,4000,0,0
4438954,6903.01,6903.61,6.69648,-1.67412,60.0,100,150,4000,0,0,100,150,4000,0,0
4439944,6903.51,6904.11,13.43038,6.73390,60.0,100,150,4000,0,0,100,150,4000,0,0
4440410,6903.26,6903.86,14.17837,0.74799,60.0,100,150,4000,0,0,100,150,4000,0,0
4440715,6903.51,6904.11,17.03098,2.85261,60.0,100,150,4000,0,0,100,150,4000,0,0
4441235,6903.26,6903.86,17.49176,0.46078,60.0,100,150,4000,0,0,100,150,4000,0,0
4442224,6903.51,6904.11,13.99341,-3.49835,60.0,100,150,4000,0,0,100,150,4000,0,0
4444247,6903.26,6903.86,13.65415,-0.33926,60.0,100,150,4000,0,0,100,150,4000,0,0
4444658,6903.26,6903.86,13.65415,-0.33926,60.0,100,150,4000,0,0,100,150,4000,0,0
4446727,6903.01,6903.61,12.94107,-0.71307,60.0,100,150,4000,0,0,100,150,4000,0,0
4452016,6903.26,6903.86,11.29804,-1.64304,60.0,100,150,4000,0,0,100,150,4000,0,0
4455630,6903.51,6904.11,10.42347,-0.87457,60.0,100,150,4000,0,0,100,150,4000,0,0
4456365,6903.76,6904.36,10.63816,0.21468,60.0,100,150,4000,0,0,100,150,4000,0,0
4456962,6904.01,6904.61,16.00116,5.36301,60.0,100,150,4000,0,0,100,150,4000,0,0
4459683,6903.76,6904.36,14.63781,-1.36335,60.0,100,150,4000,0,0,100,150,4000,0,0
4459853,6904.01,6904.61,11.71025,-2.92756,60.0,100,150,4000,0,0,100,150,4000,0,0
4461434,6904.26,6904.86,12.52477,0.81452,60.0,100,150,4000,0,0,100,150,4000,0,0
4461850,6904.51,6905.11,15.02231,2.49755,60.0,100,150,4000,0,0,100,150,4000,0,0
4462278,6904.26,6904.86,14.09685,-0.92546,60.0,100,150,4000,0,0,100,150,4000,0,0
4463203,6904.01,6904.61,18.70690,4.61005,60.0,100,150,4000,0,0,100,150,4000,0,0
4463458,6904.26,6904.86,14.96552,-3.74138,60.0,100,150,4000,0,0,100,150,4000,0,0
4465172,6904.01,6904.61,14.91706,-0.04846,60.0,100,150,4000,0,0,100,150,4000,0,0
4465496,6904.26,6904.86,11.93365,-2.98341,60.0,100,150,4000,0,0,100,150,4000,0,0
4467983,6904.51,6905.11,11.55012,-0.38352,60.0,100,150,4000,0,0,100,150,4000,0,0
4469910,6904.26,6904.86,11.83211,0.28199,60.0,100,150,4000,0,0,100,150,4000,0,0
4470864,6904.51,6905.11,9.46569,-2.36642,60.0,100,150,4000,0,0,100,150,4000,0,0
4473230,6904.26,6904.86,9.68851,0.22282,60.0,100,150,4000,0,0,100,150,4000,0,0
4473419,6904.51,6905.11,7.75081,-1.93770,60.0,100,150,4000,0,0,100,150,4000,0,0
4474662,6904.26,6904.86,10.21994,2.46913,60.0,100,150,4000,0,0,100,150,4000,0,0
4474875,6904.01,6904.61,15.04880,4.82886,60.0,100,150,4000,0,0,100,150,4000,0,0
4475093,6903.76,6904.36,20.99962,5.95081,60.0,100,150,4000,0,0,100,150,4000,0,0
4475531,6904.01,6904.61,21.53454,0.53493,60.0,100,150,4000,0,0,100,150,4000,0,0
4475995,6904.07,6904.67,18.29906,-3.23548,60.0,100,150,4000,0,0,100,150,4000,0,0
4476883,6904.26,6904.86,18.34021,0.04115,60.0,100,150,4000,0,0,100,150,4000,0,0
4479752,6904.01,6904.61,16.41981,-1.92040,60.0,100,150,4000,0,0,100,150,4000,0,0
4480477,6903.76,6904.36,15.91981,-0.50000,60.0,100,150,4000,0,0,100,150,4000,0,0
4481756,6904.01,6904.61,16.70410,0.78429,60.0,100,150,4000,0,0,100,150,4000,0,0
4482064,6903.88,6904.48,14.87939,-1.82471,60.0,100,150,4000,0,0,100,150,4000,0,0
4482283,6904.01,6904.61,14.66900,-0.21039,60.0,100,150,4000,0,0,100,150,4000,0,0
4483343,6903.88,6904.48,14.19035,-0.47865,60.0,100,150,4000,0,0,100,150,4000,0,0
4484274,6903.76,6904.36,13.93759,-0.25275,60.0,100,150,4000,0,0,100,150,4000,0,0
4485293,6904.01,6904.61,15.79691,1.85932,60.0,100,150,4000,0,0,100,150,4000,0,0
4486074,6904.26,6904.86,18.07231,2.27540,60.0,100,150,4000,0,0,100,150,4000,0,0
4486682,6904.01,6904.61,14.45785,-3.61446,60.0,100,150,4000,0,0,100,150,4000,0,0
4492045,6904.26,6904.86,12.49894,-1.95891,60.0,100,150,4000,0,0,100,150,4000,0,0
4493080,6904.01,6904.61,14.82541,2.32647,60.0,100,150,4000,0,0,100,150,4000,0,0
4494341,6903.76,6904.36,15.85075,1.02534,60.0,100,150,4000,0,0,100,150,4000,0,0
4495384,6904.01,6904.61,17.43797,1.58722,60.0,100,150,4000,0,0,100,150,4000,0,0
4496555,6903.76,6904.36,18.23120,0.79323,60.0,100,150,4000,0,0,100,150,4000,0,0
4496728,6904.01,6904.61,14.58496,-3.64624,60.0,100,150,4000,0,0,100,150,4000,0,0
4498267,6904.26,6904.86,14.88962,0.30466,60.0,100,150,4000,0,0,100,150,4000,0,0
4498520,6904.01,6904.61,11.91169,-2.97792,60.0,100,150,4000,0,0,100,150,4000,0,0
4500786,6904.26,6904.86,11.73491,-0.17678,60.0,100,150,4000,0,0,100,150,4000,0,0
4501838,6904.51,6905.11,14.12278,2.38787,60.0,100,150,4000,0,0,100,150,4000,0,0
4502035,6905.01,6905.61,23.29822,9.17544,60.0,100,150,4000,0,0,100,150,4000,0,0
4502416,6905.26,6905.86,30.87848,7.58026,60.0,100,150,4000,0,0,100,150,4000,0,0
4505315,6905.01,6905.61,26.42930,-4.44918,60.0,100,150,4000,0,0,100,150,4000,0,0
4505890,6905.26,6905.86,21.14344,-5.28586,60.0,100,150,4000,0,0,100,150,4000,0,0
4506942,6905.51,6906.11,21.68575,0.54230,60.0,100,150,4000,0,0,100,150,4000,0,0
4508838,6905.76,6906.36,19.97879,-1.70695,60.0,100,150,4000,0,0,100,150,4000,0,0
4512785,6906.01,6906.61,17.24950,-2.72929,60.0,100,150,4000,0,0,100,150,4000,0,0
4513808,6905.76,6906.36,18.67289,1.42339,60.0,100,150,4000,0,0,100,150,4000,0,0
4514349,6905.51,6906.11,21.31587,2.64297,60.0,100,150,4000,0,0,100,150,4000,0,0
4514781,6905.63,6906.23,20.85650,-0.45937,60.0,100,150,4000,0,0,100,150,4000,0,0
4515714,6905.51,6906.11,16.68520,-4.17130,60.0,100,150,4000,0,0,100,150,4000,0,0
4516882,6905.76,6906.36,17.62898,0.94378,60.0,100,150,4000,0,0,100,150,4000,0,0
4517764,6905.76,6906.36,17.62898,0.94378,60.0,100,150,4000,0,0,100,150,4000,0,0
4519395,6905.51,6906.11,16.09284,-1.53614,60.0,100,150,4000,0,0,100,150,4000,0,0
4520978,6905.26,6905.86,16.03084,-0.06200,60.0,100,150,4000,0,0,100,150,4000,0,0
4521296,6905.51,6906.11,12.82467,-3.20617,60.0,100,150,4000,0,0,100,150,4000,0,0
4526178,6905.76,6906.36,11.28517,-1.53950,60.0,100,150,4000,0,0,100,150,4000,0,0
4527026,6906.01,6906.61,10.77364,-0.51153,60.0,100,150,4000,0,0,100,150,4000,0,0
4528045,6905.76,6906.36,13.56451,2.79087,60.0,100,150,4000,0,0,100,150,4000,0,0
4530481,6905.51,6906.11,12.89326,-0.67125,60.0,100,150,4000,0,0,100,150,4000,0,0
4530805,6905.76,6906.36,10.31461,-2.57865,60.0,100,150,4000,0,0,100,150,4000,0,0
4531593,6905.51,6906.11,8.25168,-2.06292,60.0,100,150,4000,0,0,100,150,4000,0,0
4531855,6905.76,6906.36,6.60135,-1.65034,60.0,100,150,4000,0,0,100,150,4000,0,0
4532740,6905.51,6906.11,5.28108,-1.32027,60.0,100,150,4000,0,0,100,150,4000,0,0
4535002,6905.76,6906.36,6.43237,1.15129,60.0,100,150,4000,0,0,100,150,4000,0,0
4537522,6906.01,6906.61,7.28356,0.85119,60.0,100,150,4000,0,0,100,150,4000,0,0
4537983,6905.76,6906.36,5.82685,-1.45671,60.0,100,150,4000,0,0,100,150,4000,0,0
4539221,6905.51,6906.11,8.67432,2.84747,60.0,100,150,4000,0,0,100,150,4000,0,0
4539950,6905.26,6905.86,12.01302,3.33870,60.0,100,150,4000,0,0,100,150,4000,0,0
4540362,6905.01,6905.61,18.34404,6.33102,60.0,100,150,4000,0,0,100,150,4000,0,0
4540794,6905.26,6905.86,17.86401,-0.48003,60.0,100,150,4000,0,0,100,150,4000,0,0
4540982,6905.51,6906.11,19.13617,1.27216,60.0,100,150,4000,0,0,100,150,4000,0,0
4541894,6905.26,6905.86,15.30893,-3.82723,60.0,100,150,4000,0,0,100,150,4000,0,0
4543874,6905.51,6906.11,14.77113,-0.53781,60.0,100,150,4000,0,0,100,150,4000,0,0
4546370,6905.26,6905.86,13.82011,-0.95102,60.0,100,150,4000,0,0,100,150,4000,0,0
4548103,6905.01,6905.61,13.94292,0.12281,60.0,100,150,4000,0,0,100,150,4000,0,0
4549552,6904.76,6905.36,14.60024,0.65732,60.0,100,150,4000,0,0,100,150,4000,0,0
4550087,6905.01,6905.61,11.68019,-2.92005,60.0,100,150,4000,0,0,100,150,4000,0,0
4550850,6904.76,6905.36,9.34415,-2.33604,60.0,100,150,4000,0,0,100,150,4000,0,0
4552880,6904.51,6905.11,9.93716,0.59301,60.0,100,150,4000,0,0,100,150,4000,0,0
4553711,6904.26,6904.86,11.45236,1.51519,60.0,100,150,4000,0,0,100,150,4000,0,0
4554350,6904.32,6904.92,11.74165,0.28930,60.0,100,150,4000,0,0,100,150,4000,0,0
4554802,6903.76,6904.36,18.47598,6.73432,60.0,100,150,4000,0,0,100,150,4000,0,0
4555023,6903.51,6904.11,26.16166,7.68568,60.0,100,150,4000,0,0,100,150,4000,0,0
4556086,6904.01,6904.61,30.31019,4.14853,60.0,100,150,4000,0,0,100,150,4000,0,0
4556266,6904.26,6904.86,36.27702,5.96683,60.0,100,150,4000,0,0,100,150,4000,0,0
4556498,6904.01,6904.61,35.80128,-0.47574,60.0,100,150,4000,0,0,100,150,4000,0,0
4558484,6904.26,6904.86,31.15865,-4.64263,60.0,100,150,4000,0,0,100,150,4000,0,0
4560602,6904.01,6904.61,27.28763,-3.87101,60.0,100,150,4000,0,0,100,150,4000,0,0
4565906,6904.13,6904.73,22.28234,-5.00529,60.0,100,150,4000,0,0,100,150,4000,0,0
4566623,6903.76,6904.36,18.65644,-3.62590,60.0,100,150,4000,0,0,100,150,4000,0,0
4567047,6904.01,6904.61,17.03411,-1.62232,60.0,100,150,4000,0,0,100,150,4000,0,0
4569373,6903.76,6904.36,15.77413,-1.25998,60.0,100,150,4000,0,0,100,150,4000,0,0
4571870,6903.51,6904.11,14.62171,-1.15242,60.0,100,150,4000,0,0,100,150,4000,0,0
4572249,6903.76,6904.36,11.69737,-2.92434,60.0,100,150,4000,0,0,100,150,4000,0,0
4576232,6904.01,6904.61,10.61355,-1.08382,60.0,100,150,4000,0,0,100,150,4000,0,0
4576515,6904.26,6904.86,10.83440,0.22086,60.0,100,150,4000,0,0,100,150,4000,0,0
4579308,6904.01,6904.61,10.45579,-0.37861,60.0,100,150,4000,0,0,100,150,4000,0,0
4579554,6904.26,6904.86,8.36463,-2.09116,60.0,100,150,4000,0,0,100,150,4000,0,0
4580391,6904.13,6904.73,8.90982,0.54519,60.0,100,150,4000,0,0,100,150,4000,0,0
4580711,6904.26,6904.86,7.12786,-1.78196,60.0,100,150,4000,0,0,100,150,4000,0,0
4581147,6904.01,6904.61,8.84102,1.71316,60.0,100,150,4000,0,0,100,150,4000,0,0
4582686,6904.26,6904.86,10.33439,1.49338,60.0,100,150,4000,0,0,100,150,4000,0,0
4585506,6904.51,6905.11,10.03743,-0.29697,60.0,100,150,4000,0,0,100,150,4000,0,0
4585817,6904.26,6904.86,8.02994,-2.00749,60.0,100,150,4000,0,0,100,150,4000,0,0
4586171,6904.51,6905.11,7.85621,-0.17373,60.0,100,150,4000,0,0,100,150,4000,0,0
4587102,6904.26,6904.86,6.28497,-1.57124,60.0,100,150,4000,0,0,100,150,4000,0,0
4587824,6904.51,6905.11,5.02797,-1.25699,60.0,100,150,4000,0,0,100,150,4000,0,0
4588075,6904.76,6905.36,6.64843,1.62046,60.0,100,150,4000,0,0,100,150,4000,0,0
4588784,6905.01,6905.61,14.09837,7.44995,60.0,100,150,4000,0,0,100,150,4000,0,0
4589418,6905.26,6905.86,18.76934,4.67096,60.0,100,150,4000,0,0,100,150,4000,0,0
4589622,6905.01,6905.61,18.25591,-0.51343,60.0,100,150,4000,0,0,100,150,4000,0,0
4590105,6905.26,6905.86,18.38116,0.12525,60.0,100,150,4000,0,0,100,150,4000,0,0
4590918,6904.76,6905.36,18.55701,0.17585,60.0,100,150,4000,0,0,100,150,4000,0,0
4594075,6904.51,6905.11,16.43493,-2.12208,60.0,100,150,4000,0,0,100,150,4000,0,0
4594299,6904.76,6905.36,13.14794,-3.28699,60.0,100,150,4000,0,0,100,150,4000,0,0
4595382,6904.51,6905.11,15.08874,1.94080,60.0,100,150,4000,0,0,100,150,4000,0,0
4595535,6904.57,6905.17,15.12075,0.03201,60.0,100,150,4000,0,0,100,150,4000,0,0
4595828,6904.51,6905.11,15.36457,0.24382,60.0,100,150,4000,0,0,100,150,4000,0,0
4597222,6904.76,6905.36,15.83023,0.46566,60.0,100,150,4000,0,0,100,150,4000,0,0
4599858,6905.01,6905.61,14.56460,-1.26563,60.0,100,150,4000,0,0,100,150,4000,0,0
4600252,6904.76,6905.36,11.65168,-2.91292,60.0,100,150,4000,0,0,100,150,4000,0,0
4601628,6904.51,6905.11,12.96301,1.31132,60.0,100,150,4000,0,0,100,150,4000,0,0
4604848,6904.76,6905.36,11.92416,-1.03884,60.0,100,150,4000,0,0,100,150,4000,0,0
4605412,6904.51,6905.11,9.53933,-2.38483,60.0,100,150,4000,0,0,100,150,4000,0,0
4606128,6904.76,6905.36,7.63147,-1.90787,60.0,100,150,4000,0,0,100,150,4000,0,0
4608568,6905.26,6905.86,10.20858,2.57711,60.0,100,150,4000,0,0,100,150,4000,0,0
4608904,6905.51,6906.11,13.57032,3.36174,60.0,100,150,4000,0,0,100,150,4000,0,0
4611961,6905.26,6905.86,12.49292,-1.07740,60.0,100,150,4000,0,0,100,150,4000,0,0
4613864,6905.01,6905.61,12.62730,0.13438,60.0,100,150,4000,0,0,100,150,4000,0,0
4617163,6905.26,6905.86,11.61561,-1.01168,60.0,100,150,4000,0,0,100,150,4000,0,0
4620458,6905.01,6905.61,10.80902,-0.80659,60.0,100,150,4000,0,0,100,150,4000,0,0
4623064,6904.76,6905.36,10.56587,-0.24316,60.0,100,150,4000,0,0,100,150,4000,0,0
4623580,6904.51,6905.11,11.65679,1.09093,60.0,100,150,4000,0,0,100,150,4000,0,0
4624862,6904.76,6905.36,13.21649,1.55969,60.0,100,150,4000,0,0,100,150,4000,0,0
4627986,6905.01,6905.61,12.17421,-1.04227,60.0,100,150,4000,0,0,100,150,4000,0,0
4635724,6905.13,6905.73,10.04969,-2.12452,60.0,100,150,4000,0,0,100,150,4000,0,0
4636032,6905.26,6905.86,8.66149,-1.38820,60.0,100,150,4000,0,0,100,150,4000,0,0
4636469,6905.01,6905.61,6.92919,-1.73230,60.0,100,150,4000,0,0,100,150,4000,0,0
4636735,6905.26,6905.86,8.10745,1.17826,60.0,100,150,4000,0,0,100,150,4000,0,0
4637817,6905.51,6906.11,11.11988,3.01243,60.0,100,150,4000,0,0,100,150,4000,0,0
4639189,6906.01,6906.61,16.16863,5.04875,60.0,100,150,4000,0,0,100,150,4000,0,0
4639465,6906.26,6906.86,22.01481,5.84618,60.0,100,150,4000,0,0,100,150,4000,0,0
4639715,6906.76,6907.36,30.77667,8.76186,60.0,100,150,4000,0,0,100,150,4000,0,0
4639964,6907.01,6907.61,38.60083,7.82416,60.0,100,150,4000,0,0,100,150,4000,0,0
4640584,6907.32,6907.92,49.84310,11.24227,60.0,100,150,4000,0,0,100,150,4000,0,0
4640795,6907.26,6907.86,49.14232,-0.70078,60.0,100,150,4000,0,0,100,150,4000,0,0
4641704,6907.51,6908.11,42.71278,-6.42954,60.0,100,150,4000,0,0,100,150,4000,0,0
4642752,6907.26,6907.86,38.93213,-3.78065,60.0,100,150,4000,0,0,100,150,4000,0,0
4643365,6907.01,6907.61,37.16980,-1.76233,60.0,100,150,4000,0,0,100,150,4000,0,0
4646493,6906.76,6907.36,31.33482,-5.83498,60.0,100,150,4000,0,0,100,150,4000,0,0
4646696,6906.51,6907.11,28.06815,-3.26666,60.0,100,150,4000,0,0,100,150,4000,0,0
4647464,6906.26,6906.86,26.11485,-1.95331,60.0,100,150,4000,0,0,100,150,4000,0,0
4647956,6906.51,6907.11,20.89188,-5.22297,60.0,100,150,4000,0,0,100,150,4000,0,0
4650832,6906.38,6906.98,17.61879,-3.27308,60.0,100,150,4000,0,0,100,150,4000,0,0
4651823,6906.26,6906.86,15.38903,-2.22976,60.0,100,150,4000,0,0,100,150,4000,0,0
4651996,6906.51,6907.11,14.53916,-0.84987,60.0,100,150,4000,0,0,100,150,4000,0,0
4652987,6906.26,6906.86,11.63133,-2.90783,60.0,100,150,4000,0,0,100,150,4000,0,0
4653569,6906.01,6906.61,15.65427,4.02294,60.0,100,150,4000,0,0,100,150,4000,0,0
4654002,6906.26,6906.86,12.52341,-3.13085,60.0,100,150,4000,0,0,100,150,4000,0,0
4655936,6906.51,6907.11,12.60538,0.08197,60.0,100,150,4000,0,0,100,150,4000,0,0
4656465,6906.76,6907.36,14.14770,1.54231,60.0,100,150,4000,0,0,100,150,4000,0,0
4656649,6906.51,6907.11,13.20709,-0.94061,60.0,100,150,4000,0,0,100,150,4000,0,0
4656954,6906.76,6907.36,15.47726,2.27017,60.0,100,150,4000,0,0,100,150,4000,0,0
4657310,6907.01,6907.61,19.68108,4.20382,60.0,100,150,4000,0,0,100,150,4000,0,0
4658243,6906.76,6907.36,15.74486,-3.93622,60.0,100,150,4000,0,0,100,150,4000,0,0
4661898,6907.01,6907.61,13.96238,-1.78248,60.0,100,150,4000,0,0,100,150,4000,0,0
4663174,6907.26,6907.86,15.08227,1.11989,60.0,100,150,4000,0,0,100,150,4000,0,0
4664336,6907.01,6907.61,16.37616,1.29389,60.0,100,150,4000,0,0,100,150,4000,0,0
4665574,6906.76,6907.36,17.13644,0.76028,60.0,100,150,4000,0,0,100,150,4000,0,0
4666125,6907.01,6907.61,13.70915,-3.42729,60.0,100,150,4000,0,0,100,150,4000,0,0
4666635,6906.76,6907.36,10.96732,-2.74183,60.0,100,150,4000,0,0,100,150,4000,0,0
4667459,6906.88,6907.48,10.71416,-0.25317,60.0,100,150,4000,0,0,100,150,4000,0,0
4667718,6907.01,6907.61,13.18813,2.47397,60.0,100,150,4000,0,0,100,150,4000,0,0
4669745,6907.26,6907.86,13.01720,-0.17093,60.0,100,150,4000,0,0,100,150,4000,0,0
4670069,6907.13,6907.73,11.43461,-1.58260,60.0,100,150,4000,0,0,100,150,4000,0,0
4670339,6907.01,6907.61,9.14768,-2.28692,60.0,100,150,4000,0,0,100,150,4000,0,0
4670509,6907.26,6907.86,9.10898,-0.03871,60.0,100,150,4000,0,0,100,150,4000,0,0
4671090,6907.01,6907.61,9.63782,0.52884,60.0,100,150,4000,0,0,100,150,4000,0,0
4673069,6906.76,6907.36,10.24447,0.60665,60.0,100,150,4000,0,0,100,150,4000,0,0
4676003,6907.01,6907.61,9.89857,-0.34590,60.0,100,150,4000,0,0,100,150,4000,0,0
4678077,6906.76,6907.36,10.33899,0.44042,60.0,100,150,4000,0,0,100,150,4000,0,0
4679289,6906.82,6907.42,9.26293,-1.07606,60.0,100,150,4000,0,0,100,150,4000,0,0
4680242,6906.76,6907.36,7.41034,-1.85259,60.0,100,150,4000,0,0,100,150,4000,0,0
4680592,6907.01,6907.61,8.81362,1.40328,60.0,100,150,4000,0,0,100,150,4000,0,0
4683953,6906.76,6907.36,8.53899,-0.27463,60.0,100,150,4000,0,0,100,150,4000,0,0
4684230,6906.63,6907.23,8.92198,0.38299,60.0,100,150,4000,0,0,100,150,4000,0,0
4684570,6906.51,6907.11,9.66347,0.74149,60.0,100,150,4000,0,0,100,150,4000,0,0
4685199,6906.26,6906.86,15.75002,6.08655,60.0,100,150,4000,0,0,100,150,4000,0,0
4688824,6906.51,6907.11,13.98047,-1.76955,60.0,100,150,4000,0,0,100,150,4000,0,0
4689666,6906.76,6907.36,13.42302,-0.55746,60.0,100,150,4000,0,0,100,150,4000,0,0
4690634,6906.51,6907.11,10.73841,-2.68460,60.0,100,150,4000,0,0,100,150,4000,0,0
4693075,6906.26,6906.86,10.63823,-0.10018,60.0,100,150,4000,0,0,100,150,4000,0,0
4697330,6906.01,6906.61,9.68595,-0.95228,60.0,100,150,4000,0,0,100,150,4000,0,0
4697826,6906.26,6906.86,7.74876,-1.93719,60.0,100,150,4000,0,0,100,150,4000,0,0
4698300,6906.51,6907.11,7.15576,-0.59300,60.0,100,150,4000,0,0,100,150,4000,0,0
4699179,6906.26,6906.86,5.72461,-1.43115,60.0,100,150,4000,0,0,100,150,4000,0,0
4701483,6906.51,6907.11,6.74607,1.02146,60.0,100,150,4000,0,0,100,150,4000,0,0
4703558,6906.26,6906.86,7.80649,1.06043,60.0,100,150,4000,0,0,100,150,4000,0,0
4708346,6906.51,6907.11,7.28947,-0.51702,60.0,100,150,4000,0,0,100,150,4000,0,0
4708976,6906.76,6907.36,7.67728,0.38781,60.0,100,150,4000,0,0,100,150,4000,0,0
4709154,6906.51,6907.11,7.03532,-0.64196,60.0,100,150,4000,0,0,100,150,4000,0,0
4709408,6906.76,6907.36,10.35415,3.31883,60.0,100,150,4000,0,0,100,150,4000,0,0
4709901,6906.38,6906.98,9.95642,-0.39773,60.0,100,150,4000,0,0,100,150,4000,0,0
4710109,6906.51,6907.11,12.37820,2.42178,60.0,100,150,4000,0,0,100,150,4000,0,0
4711998,6906.76,6907.36,12.55087,0.17266,60.0,100,150,4000,0,0,100,150,4000,0,0
4713681,6906.51,6907.11,13.00981,0.45895,60.0,100,150,4000,0,0,100,150,4000,0,0
4714875,6906.76,6907.36,14.59897,1.58915,60.0,100,150,4000,0,0,100,150,4000,0,0
4715192,6906.51,6907.11,11.67917,-2.91979,60.0,100,150,4000,0,0,100,150,4000,0,0
4715642,6906.63,6907.23,10.56720,-1.11197,60.0,100,150,4000,0,0,100,150,4000,0,0
4715947,6906.76,6907.36,8.45376,-2.11344,60.0,100,150,4000,0,0,100,150,4000,0,0
4716752,6906.76,6907.36,8.45376,-2.11344,60.0,100,150,4000,0,0,100,150,4000,0,0
4718239,6907.01,6907.61,8.94356,0.48980,60.0,100,150,4000,0,0,100,150,4000,0,0
4719339,6906.76,6907.36,11.70444,2.76088,60.0,100,150,4000,0,0,100,150,4000,0,0
4719609,6907.01,6907.61,9.36355,-2.34089,60.0,100,150,4000,0,0,100,150,4000,0,0
4720143,6906.76,6907.36,10.11689,0.75334,60.0,100,150,4000,0,0,100,150,4000,0,0
4720484,6906.51,6907.11,12.46032,2.34343,60.0,100,150,4000,0,0,100,150,4000,0,0
4722593,6906.76,6907.36,12.34243,-0.11790,60.0,100,150,4000,0,0,100,150,4000,0,0
4723443,6907.01,6907.61,13.25232,0.90989,60.0,100,150,4000,0,0,100,150,4000,0,0
4729609,6907.26,6907.86,11.41276,-1.83957,60.0,100,150,4000,0,0,100,150,4000,0,0
4729768,6907.51,6908.11,10.71198,-0.70077,60.0,100,150,4000,0,0,100,150,4000,0,0
4729942,6907.26,6907.86,9.33929,-1.37269,60.0,100,150,4000,0,0,100,150,4000,0,0
4730268,6907.01,6907.61,7.47143,-1.86786,60.0,100,150,4000,0,0,100,150,4000,0,0
4730833,6906.76,6907.36,20.07489,12.60346,60.0,100,150,4000,0,0,100,150,4000,0,0
4731249,6906.88,6907.48,21.86144,1.78655,60.0,100,150,4000,0,0,100,150,4000,0,0
4732206,6907.01,6907.61,21.12023,-0.74121,60.0,100,150,4000,0,0,100,150,4000,0,0
4734087,6907.26,6907.86,19.55576,-1.56447,60.0,100,150,4000,0,0,100,150,4000,0,0
4735555,6907.01,6907.61,19.05525,-0.50051,60.0,100,150,4000,0,0,100,150,4000,0,0
4735923,6907.26,6907.86,15.24420,-3.81105,60.0,100,150,4000,0,0,100,150,4000,0,0
4736306,6907.01,6907.61,14.44761,-0.79659,60.0,100,150,4000,0,0,100,150,4000,0,0
4739410,6906.76,6907.36,13.16943,-1.27818,60.0,100,150,4000,0,0,100,150,4000,0,0
4742989,6906.51,6907.11,11.93219,-1.23724,60.0,100,150,4000,0,0,100,150,4000,0,0
4743360,6906.26,6906.86,12.07740,0.14521,60.0,100,150,4000,0,0,100,150,4000,0,0
4745296,6906.07,6906.67,11.63800,-0.43940,60.0,100,150,4000,0,0,100,150,4000,0,0
4745684,6906.01,6906.61,11.47397,-0.16403,60.0,100,150,4000,0,0,100,150,4000,0,0
4748259,6905.76,6906.36,11.12546,-0.34851,60.0,100,150,4000,0,0,100,150,4000,0,0
4750765,6905.26,6905.86,12.86076,1.73530,60.0,100,150,4000,0,0,100,150,4000,0,0
4751089,6905.01,6905.61,15.55361,2.69285,60.0,100,150,4000,0,0,100,150,4000,0,0
4751329,6905.26,6905.86,15.68018,0.12657,60.0,100,150,4000,0,0,100,150,4000,0,0
4751921,6905.01,6905.61,16.88066,1.20048,60.0,100,150,4000,0,0,100,150,4000,0,0
4752920,6905.26,6905.86,13.50453,-3.37613,60.0,100,150,4000,0,0,100,150,4000,0,0
4753291,6905.01,6905.61,10.80362,-2.70091,60.0,100,150,4000,0,0,100,150,4000,0,0
4754817,6905.26,6905.86,11.91729,1.11367,60.0,100,150,4000,0,0,100,150,4000,0,0
4757157,6905.51,6906.11,11.67150,-0.24579,60.0,100,150,4000,0,0,100,150,4000,0,0
4758109,6905.26,6905.86,9.33720,-2.33430,60.0,100,150,4000,0,0,100,150,4000,0,0
4758590,6905.51,6906.11,7.46976,-1.86744,60.0,100,150,4000,0,0,100,150,4000,0,0
4758840,6905.76,6906.36,8.96267,1.49291,60.0,100,150,4000,0,0,100,150,4000,0,0
4759285,6905.88,6906.48,17.70539,8.74273,60.0,100,150,4000,0,0,100,150,4000,0,0
4759503,6905.51,6906.11,17.74598,0.04058,60.0,100,150,4000,0,0,100,150,4000,0,0
4761147,6905.26,6905.86,17.24370,-0.50227,60.0,100,150,4000,0,0,100,150,4000,0,0
4761454,6905.01,6905.61,18.95758,1.71388,60.0,100,150,4000,0,0,100,150,4000,0,0
4761990,6905.26,6905.86,17.18545,-1.77213,60.0,100,150,4000,0,0,100,150,4000,0,0
4763857,6905.51,6906.11,16.41219,-0.77327,60.0,100,150,4000,0,0,100,150,4000,0,0
4767756,6905.26,6905.86,14.41279,-1.99940,60.0,100,150,4000,0,0,100,150,4000,0,0
4770102,6905.51,6906.11,13.65970,-0.75309,60.0,100,150,4000,0,0,100,150,4000,0,0
4770664,6905.76,6906.36,14.36419,0.70449,60.0,100,150,4000,0,0,100,150,4000,0,0
4773464,6906.01,6906.61,13.27707,-1.08712,60.0,100,150,4000,0,0,100,150,4000,0,0
4778333,6905.76,6906.36,11.64856,-1.62851,60.0,100,150,4000,0,0,100,150,4000,0,0
4782717,6905.51,6906.11,10.45910,-1.18946,60.0,100,150,4000,0,0,100,150,4000,0,0
4784015,6905.26,6905.86,12.22530,1.76621,60.0,100,150,4000,0,0,100,150,4000,0,0
4784896,6905.51,6906.11,9.78024,-2.44506,60.0,100,150,4000,0,0,100,150,4000,0,0
4785249,6905.26,6905.86,7.82419,-1.95605,60.0,100,150,4000,0,0,100,150,4000,0,0
4785774,6905.20,6905.80,11.53146,3.70727,60.0,100,150,4000,0,0,100,150,4000,0,0
4786813,6905.26,6905.86,10.38235,-1.14911,60.0,100,150,4000,0,0,100,150,4000,0,0
4788129,6905.76,6906.36,15.91045,5.52809,60.0,100,150,4000,0,0,100,150,4000,0,0
4788521,6906.01,6906.61,21.50029,5.58984,60.0,100,150,4000,0,0,100,150,4000,0,0
4789342,6906.01,6906.61,21.50029,5.58984,60.0,100,150,4000,0,0,100,150,4000,0,0
4789658,6905.95,6906.55,18.26690,-3.23339,60.0,100,150,4000,0,0,100,150,4000,0,0
4790805,6906.01,6906.61,15.65158,-2.61532,60.0,100,150,4000,0,0,100,150,4000,0,0
4794632,6905.76,6906.36,13.82709,-1.82449,60.0,100,150,4000,0,0,100,150,4000,0,0
4794835,6905.51,6906.11,13.54306,-0.28403,60.0,100,150,4000,0,0,100,150,4000,0,0
4797657,6905.26,6905.86,12.60436,-0.93870,60.0,100,150,4000,0,0,100,150,4000,0,0
4800361,6905.51,6906.11,11.93465,-0.66971,60.0,100,150,4000,0,0,100,150,4000,0,0
4803462,6905.45,6906.05,9.93620,-1.99846,60.0,100,150,4000,0,0,100,150,4000,0,0
4804494,6905.26,6905.86,9.20272,-0.73348,60.0,100,150,4000,0,0,100,150,4000,0,0
4805360,6905.51,6906.11,12.29314,3.09042,60.0,100,150,4000,0,0,100,150,4000,0,0
4808421,6905.76,6906.36,11.46743,-0.82571,60.0,100,150,4000,0,0,100,150,4000,0,0
4808773,6905.51,6906.11,9.17395,-2.29349,60.0,100,150,4000,0,0,100,150,4000,0,0
4811656,6905.26,6905.86,9.07226,-0.10169,60.0,100,150,4000,0,0,100,150,4000,0,0
4816066,6905.51,6906.11,8.39237,-0.67989,60.0,100,150,4000,0,0,100,150,4000,0,0
4824265,6905.76,6906.36,7.32372,-1.06864,60.0,100,150,4000,0,0,100,150,4000,0,0
4825343,6906.01,6906.61,10.50150,3.17778,60.0,100,150,4000,0,0,100,150,4000,0,0
4825923,6906.01,6906.61,10.50150,3.17778,60.0,100,150,4000,0,0,100,150,4000,0,0
4826773,6906.01,6906.61,10.50150,3.17778,60.0,100,150,4000,0,0,100,150,4000,0,0
4827042,6905.51,6906.11,14.31486,3.81336,60.0,100,150,4000,0,0,100,150,4000,0,0
4830400,6905.76,6906.36,12.93910,-1.37576,60.0,100,150,4000,0,0,100,150,4000,0,0
4831531,6905.51,6906.11,14.74882,1.80972,60.0,100,150,4000,0,0,100,150,4000,0,0
4832801,6905.76,6906.36,15.74227,0.99345,60.0,100,150,4000,0,0,100,150,4000,0,0
4833623,6905.76,6906.36,15.74227,0.99345,60.0,100,150,4000,0,0,100,150,4000,0,0
4834124,6906.01,6906.61,16.36740,0.62513,60.0,100,150,4000,0,0,100,150,4000,0,0
4834954,6905.76,6906.36,13.09392,-3.27348,60.0,100,150,4000,0,0,100,150,4000,0,0
4835226,6905.51,6906.11,19.56605,6.47212,60.0,100,150,4000,0,0,100,150,4000,0,0
4835920,6905.76,6906.36,18.43680,-1.12925,60.0,100,150,4000,0,0,100,150,4000,0,0
4837417,6905.51,6906.11,18.08945,-0.34735,60.0,100,150,4000,0,0,100,150,4000,0,0
4837892,6905.76,6906.36,14.47156,-3.61789,60.0,100,150,4000,0,0,100,150,4000,0,0
4838153,6905.51,6906.11,13.81639,-0.65517,60.0,100,150,4000,0,0,100,150,4000,0,0
4839090,6905.76,6906.36,11.05311,-2.76328,60.0,100,150,4000,0,0,100,150,4000,0,0
4842564,6905.51,6906.11,10.28258,-0.77053,60.0,100,150,4000,0,0,100,150,4000,0,0
4843434,6905.01,6905.61,11.68229,1.39970,60.0,100,150,4000,0,0,100,150,4000,0,0
4843660,6904.76,6905.36,23.03196,11.34967,60.0,100,150,4000,0,0,100,150,4000,0,0
4843930,6905.01,6905.61,25.74086,2.70890,60.0,100,150,4000,0,0,100,150,4000,0,0
4844969,6905.26,6905.86,29.52924,3.78838,60.0,100,150,4000,0,0,100,150,4000,0,0
4845038,6905.51,6906.11,32.67316,3.14393,60.0,100,150,4000,0,0,100,150,4000,0,0
4845840,6905.26,6905.86,26.13853,-6.53463,60.0,100,150,4000,0,0,100,150,4000,0,0
4849203,6905.01,6905.61,22.38575,-3.75278,60.0,100,150,4000,0,0,100,150,4000,0,0
4851231,6904.76,6905.36,20.38140,-2.00435,60.0,100,150,4000,0,0,100,150,4000,0,0
4854367,6904.51,6905.11,17.90820,-2.47320,60.0,100,150,4000,0,0,100,150,4000,0,0
4854549,6904.76,6905.36,14.32656,-3.58164,60.0,100,150,4000,0,0,100,150,4000,0,0
4854744,6904.51,6905.11,12.88291,-1.44365,60.0,100,150,4000,0,0,100,150,4000,0,0
4855488,6904.26,6904.86,14.72329,1.84038,60.0,100,150,4000,0,0,100,150,4000,0,0
4855820,6904.51,6905.11,11.77863,-2.94466,60.0,100,150,4000,0,0,100,150,4000,0,0
4856114,6904.26,6904.86,13.07254,1.29391,60.0,100,150,4000,0,0,100,150,4000,0,0
4858188,6904.51,6905.11,12.86883,-0.20371,60.0,100,150,4000,0,0,100,150,4000,0,0
4858365,6904.76,6905.36,14.73359,1.86476,60.0,100,150,4000,0,0,100,150,4000,0,0
4859616,6905.01,6905.61,15.78368,1.05008,60.0,100,150,4000,0,0,100,150,4000,0,0
4860563,6904.76,6905.36,12.62694,-3.15674,60.0,100,150,4000,0,0,100,150,4000,0,0
4864532,6904.51,6905.11,11.35878,-1.26816,60.0,100,150,4000,0,0,100,150,4000,0,0
4865052,6904.26,6904.86,11.31172,-0.04706,60.0,100,150,4000,0,0,100,150,4000,0,0
4865302,6904.51,6905.11,10.10312,-1.20860,60.0,100,150,4000,0,0,100,150,4000,0,0
4865670,6904.70,6905.30,11.42169,1.31857,60.0,100,150,4000,0,0,100,150,4000,0,0
4865858,6904.51,6905.11,9.13735,-2.28434,60.0,100,150,4000,0,0,100,150,4000,0,0
4867255,6904.26,6904.86,10.89668,1.75933,60.0,100,150,4000,0,0,100,150,4000,0,0
4868207,6904.51,6905.11,8.71734,-2.17934,60.0,100,150,4000,0,0,100,150,4000,0,0
4869474,6904.76,6905.36,10.92957,2.21223,60.0,100,150,4000,0,0,100,150,4000,0,0
4872712,6904.51,6905.11,10.28687,-0.64270,60.0,100,150,4000,0,0,100,150,4000,0,0
4875189,6904.26,6904.86,10.24725,-0.03962,60.0,100,150,4000,0,0,100,150,4000,0,0
4875892,6904.01,6904.61,11.34147,1.09422,60.0,100,150,4000,0,0,100,150,4000,0,0
4876631,6903.76,6904.36,16.02727,4.68581,60.0,100,150,4000,0,0,100,150,4000,0,0
4877642,6904.01,6904.61,17.75765,1.73038,60.0,100,150,4000,0,0,100,150,4000,0,0
4878415,6904.26,6904.86,19.80209,2.04444,60.0,100,150,4000,0,0,100,150,4000,0,0
4879328,6904.01,6904.61,15.84168,-3.96042,60.0,100,150,4000,0,0,100,150,4000,0,0
4882315,6904.26,6904.86,14.34838,-1.49329,60.0,100,150,4000,0,0,100,150,4000,0,0
4883149,6904.26,6904.86,14.34838,-1.49329,60.0,100,150,4000,0,0,100,150,4000,0,0
4884247,6904.26,6904.86,14.34838,-1.49329,60.0,100,150,4000,0,0,100,150,4000,0,0
4884563,6904.20,6904.80,12.01228,-2.33611,60.0,100,150,4000,0,0,100,150,4000,0,0
4885519,6904.01,6904.61,11.17086,-0.84142,60.0,100,150,4000,0,0,100,150,4000,0,0
4886846,6904.26,6904.86,12.70458,1.53373,60.0,100,150,4000,0,0,100,150,4000,0,0
4887208,6904.01,6904.61,10.16367,-2.54092,60.0,100,150,4000,0,0,100,150,4000,0,0
4888646,6903.76,6904.36,11.61525,1.45159,60.0,100,150,4000,0,0,100,150,4000,0,0
4889010,6904.26,6904.86,12.06844,0.45318,60.0,100,150,4000,0,0,100,150,4000,0,0
4889555,6904.01,6904.61,9.65475,-2.41369,60.0,100,150,4000,0,0,100,150,4000,0,0
4890536,6904.26,6904.86,7.72380,-1.93095,60.0,100,150,4000,0,0,100,150,4000,0,0
4890723,6904.51,6905.11,14.74068,7.01688,60.0,100,150,4000,0,0,100,150,4000,0,0
4891763,6904.26,6904.86,16.62814,1.88745,60.0,100,150,4000,0,0,100,150,4000,0,0
4893524,6904.01,6904.61,16.13216,-0.49597,60.0,100,150,4000,0,0,100,150,4000,0,0
4895639,6904.26,6904.86,15.27316,-0.85901,60.0,100,150,4000,0,0,100,150,4000,0,0
4896197,6904.01,6904.61,12.21852,-3.05463,60.0,100,150,4000,0,0,100,150,4000,0,0
4896472,6904.26,6904.86,11.47089,-0.74764,60.0,100,150,4000,0,0,100,150,4000,0,0
4899662,6904.01,6904.61,10.74460,-0.72629,60.0,100,150,4000,0,0,100,150,4000,0,0
4900344,6903.76,6904.36,11.17832,0.43373,60.0,100,150,4000,0,0,100,150,4000,0,0
4901794,6903.51,6904.11,12.39808,1.21976,60.0,100,150,4000,0,0,100,150,4000,0,0
4902860,6903.76,6904.36,14.60450,2.20642,60.0,100,150,4000,0,0,100,150,4000,0,0
4904392,6904.01,6904.61,14.94093,0.33643,60.0,100,150,4000,0,0,100,150,4000,0,0
4904785,6904.26,6904.86,17.15295,2.21202,60.0,100,150,4000,0,0,100,150,4000,0,0
4905326,6904.01,6904.61,15.74912,-1.40384,60.0,100,150,4000,0,0,100,150,4000,0,0
4907997,6904.26,6904.86,14.48751,-1.26161,60.0,100,150,4000,0,0,100,150,4000,0,0
4908904,6904.01,6904.61,11.59001,-2.89750,60.0,100,150,4000,0,0,100,150,4000,0,0
4909744,6904.01,6904.61,11.59001,-2.89750,60.0,100,150,4000,0,0,100,150,4000,0,0
4913118,6903.76,6904.36,10.45516,-1.13485,60.0,100,150,4000,0,0,100,150,4000,0,0
4913284,6903.51,6904.11,10.64099,0.18584,60.0,100,150,4000,0,0,100,150,4000,0,0
4914263,6903.76,6904.36,8.51279,-2.12820,60.0,100,150,4000,0,0,100,150,4000,0,0
4914559,6903.51,6904.11,6.81024,-1.70256,60.0,100,150,4000,0,0,100,150,4000,0,0
4918673,6903.63,6904.23,6.03142,-0.77882,60.0,100,150,4000,0,0,100,150,4000,0,0
4918834,6903.51,6904.11,4.82514,-1.20628,60.0,100,150,4000,0,0,100,150,4000,0,0
4921717,6903.26,6903.86,5.59321,0.76807,60.0,100,150,4000,0,0,100,150,4000,0,0
4921948,6903.51,6904.11,4.47457,-1.11864,60.0,100,150,4000,0,0,100,150,4000,0,0
4922687,6903.26,6903.86,4.87667,0.40210,60.0,100,150,4000,0,0,100,150,4000,0,0
4923381,6903.51,6904.11,3.90134,-0.97533,60.0,100,150,4000,0,0,100,150,4000,0,0
4924823,6903.76,6904.36,6.60296,2.70163,60.0,100,150,4000,0,0,100,150,4000,0,0
4927187,6903.51,6904.11,7.39119,0.78822,60.0,100,150,4000,0,0,100,150,4000,0,0
4927820,6903.76,6904.36,5.91295,-1.47824,60.0,100,150,4000,0,0,100,150,4000,0,0
4929803,6903.51,6904.11,7.25817,1.34522,60.0,100,150,4000,0,0,100,150,4000,0,0
4931963,6903.26,6903.86,8.11387,0.85570,60.0,100,150,4000,0,0,100,150,4000,0,0
4932297,6903.51,6904.11,6.49110,-1.62277,60.0,100,150,4000,0,0,100,150,4000,0,0
4934194,6903.76,6904.36,7.82307,1.33198,60.0,100,150,4000,0,0,100,150,4000,0,0
4936208,6904.01,6904.61,8.73985,0.91678,60.0,100,150,4000,0,0,100,150,4000,0,0
4937422,6904.26,6904.86,11.10710,2.36726,60.0,100,150,4000,0,0,100,150,4000,0,0
4939070,6904.13,6904.73,10.46335,-0.64375,60.0,100,150,4000,0,0,100,150,4000,0,0
4940031,6904.26,6904.86,8.37068,-2.09267,60.0,100,150,4000,0,0,100,150,4000,0,0
4940205,6904.51,6905.11,13.41033,5.03964,60.0,100,150,4000,0,0,100,150,4000,0,0
4940998,6904.26,6904.86,12.07751,-1.33282,60.0,100,150,4000,0,0,100,150,4000,0,0
4941842,6903.76,6904.36,18.84756,6.77005,60.0,100,150,4000,0,0,100,150,4000,0,0
4943255,6904.01,6904.61,18.60165,-0.24590,60.0,100,150,4000,0,0,100,150,4000,0,0
4946526,6903.76,6904.36,16.41365,-2.18800,60.0,100,150,4000,0,0,100,150,4000,0,0
4948195,6904.01,6904.61,16.11244,-0.30122,60.0,100,150,4000,0,0,100,150,4000,0,0
4952322,6904.26,6904.86,14.10237,-2.01007,60.0,100,150,4000,0,0,100,150,4000,0,0
4952638,6904.01,6904.61,11.28189,-2.82047,60.0,100,150,4000,0,0,100,150,4000,0,0
4952791,6904.26,6904.86,10.11389,-1.16800,60.0,100,150,4000,0,0,100,150,4000,0,0
4953289,6904.13,6904.73,8.56225,-1.55164,60.0,100,150,4000,0,0,100,150,4000,0,0
4953565,6904.26,6904.86,6.84980,-1.71245,60.0,100,150,4000,0,0,100,150,4000,0,0
4955173,6904.01,6904.61,8.59123,1.74143,60.0,100,150,4000,0,0,100,150,4000,0,0
4955565,6904.26,6904.86,6.87298,-1.71825,60.0,100,150,4000,0,0,100,150,4000,0,0
4956572,6904.01,6904.61,10.46363,3.59065,60.0,100,150,4000,0,0,100,150,4000,0,0
4957569,6904.26,6904.86,8.37090,-2.09273,60.0,100,150,4000,0,0,100,150,4000,0,0
4958155,6904.51,6905.11,13.00986,4.63895,60.0,100,150,4000,0,0,100,150,4000,0,0
4959091,6904.01,6904.61,13.69304,0.68318,60.0,100,150,4000,0,0,100,150,4000,0,0
4959511,6903.76,6904.36,22.04090,8.34787,60.0,100,150,4000,0,0,100,150,4000,0,0
4960020,6903.51,6904.11,28.37386,6.33296,60.0,100,150,4000,0,0,100,150,4000,0,0
4960652,6903.76,6904.36,22.69909,-5.67477,60.0,100,150,4000,0,0,100,150,4000,0,0
4960924,6903.51,6904.11,21.69284,-1.00625,60.0,100,150,4000,0,0,100,150,4000,0,0
4961359,6903.26,6903.86,21.08283,-0.61001,60.0,100,150,4000,0,0,100,150,4000,0,0
4961959,6903.01,6903.61,26.52810,5.44527,60.0,100,150,4000,0,0,100,150,4000,0,0
4963235,6902.76,6903.36,25.14713,-1.38097,60.0,100,150,4000,0,0,100,150,4000,0,0
4964528,6902.51,6903.11,23.98169,-1.16544,60.0,100,150,4000,0,0,100,150,4000,0,0
4966570,6902.76,6903.36,21.81140,-2.17029,60.0,100,150,4000,0,0,100,150,4000,0,0
4966870,6902.51,6903.11,17.44912,-4.36228,60.0,100,150,4000,0,0,100,150,4000,0,0
4967964,6902.76,6903.36,18.60614,1.15702,60.0,100,150,4000,0,0,100,150,4000,0,0
4971596,6902.51,6903.11,16.25590,-2.35024,60.0,100,150,4000,0,0,100,150,4000,0,0
4971818,6902.26,6902.86,15.58870,-0.66720,60.0,100,150,4000,0,0,100,150,4000,0,0
4972753,6902.51,6903.11,12.47096,-3.11774,60.0,100,150,4000,0,0,100,150,4000,0,0
4973446,6902.76,6903.36,16.11174,3.64078,60.0,100,150,4000,0,0,100,150,4000,0,0
4973984,6902.51,6903.11,12.88939,-3.22235,60.0,100,150,4000,0,0,100,150,4000,0,0
4974460,6902.76,6903.36,10.31151,-2.57788,60.0,100,150,4000,0,0,100,150,4000,0,0
4978658,6902.51,6903.11,9.44167,-0.86984,60.0,100,150,4000,0,0,100,150,4000,0,0
4979960,6902.76,6903.36,11.37305,1.93138,60.0,100,150,4000,0,0,100,150,4000,0,0
4982312,6902.51,6903.11,11.22248,-0.15057,60.0,100,150,4000,0,0,100,150,4000,0,0
4983877,6902.26,6902.86,12.18106,0.95858,60.0,100,150,4000,0,0,100,150,4000,0,0
4984764,6902.51,6903.11,9.74485,-2.43621,60.0,100,150,4000,0,0,100,150,4000,0,0
4987301,6902.76,6903.36,9.76516,0.02031,60.0,100,150,4000,0,0,100,150,4000,0,0
4990770,6903.01,6903.61,9.25388,-0.51128,60.0,100,150,4000,0,0,100,150,4000,0,0
4993502,6903.26,6903.86,9.23260,-0.02128,60.0,100,150,4000,0,0,100,150,4000,0,0
4994164,6903.51,6904.11,10.33332,1.10073,60.0,100,150,4000,0,0,100,150,4000,0,0
4994978,6903.26,6903.86,8.26666,-2.06666,60.0,100,150,4000,0,0,100,150,4000,0,0
4995511,6903.51,6904.11,6.61333,-1.65333,60.0,100,150,4000,0,0,100,150,4000,0,0
4998217,6904.01,6904.61,8.98615,2.37283,60.0,100,150,4000,0,0,100,150,4000,0,0
4998632,6903.76,6904.36,8.79149,-0.19467,60.0,100,150,4000,0,0,100,150,4000,0,0
5000516,6904.01,6904.61,9.68571,0.89422,60.0,100,150,4000,0,0,100,150,4000,0,0
5002573,6904.26,6904.86,10.18047,0.49476,60.0,100,150,4000,0,0,100,150,4000,0,0
5003175,6904.51,6905.11,11.90519,1.72472,60.0,100,150,4000,0,0,100,150,4000,0,0
5003545,6904.26,6904.86,11.17541,-0.72978,60.0,100,150,4000,0,0,100,150,4000,0,0
5005841,6904.01,6904.61,11.11613,-0.05928,60.0,100,150,4000,0,0,100,150,4000,0,0
5006001,6904.26,6904.86,8.89290,-2.22323,60.0,100,150,4000,0,0,100,150,4000,0,0
5006350,6904.01,6904.61,8.89559,0.00268,60.0,100,150,4000,0,0,100,150,4000,0,0
5006595,6903.76,6904.36,10.39408,1.49850,60.0,100,150,4000,0,0,100,150,4000,0,0
5007646,6903.51,6904.11,13.06360,2.66952,60.0,100,150,4000,0,0,100,150,4000,0,0
5014510,6903.76,6904.36,11.17975,-1.88386,60.0,100,150,4000,0,0,100,150,4000,0,0
5014716,6903.51,6904.11,8.94380,-2.23595,60.0,100,150,4000,0,0,100,150,4000,0,0
5015115,6903.76,6904.36,7.82456,-1.11924,60.0,100,150,4000,0,0,100,150,4000,0,0
5015531,6903.70,6904.30,7.43382,-0.39074,60.0,100,150,4000,0,0,100,150,4000,0,0
5016569,6903.51,6904.11,9.60442,2.17060,60.0,100,150,4000,0,0,100,150,4000,0,0
5017277,6903.76,6904.36,8.37003,-1.23438,60.0,100,150,4000,0,0,100,150,4000,0,0
5017611,6903.51,6904.11,6.69603,-1.67401,60.0,100,150,4000,0,0,100,150,4000,0,0
5017830,6903.76,6904.36,9.32823,2.63220,60.0,100,150,4000,0,0,100,150,4000,0,0
5018531,6903.26,6903.86,15.43706,6.10884,60.0,100,150,4000,0,0,100,150,4000,0,0
5019059,6903.51,6904.11,16.40809,0.97103,60.0,100,150,4000,0,0,100,150,4000,0,0
5020005,6903.26,6903.86,13.12647,-3.28162,60.0,100,150,4000,0,0,100,150,4000,0,0
5025488,6903.01,6903.61,11.41325,-1.71322,60.0,100,150,4000,0,0,100,150,4000,0,0
5027541,6903.26,6903.86,11.56606,0.15281,60.0,100,150,4000,0,0,100,150,4000,0,0
5027785,6903.01,6903.61,9.25285,-2.31321,60.0,100,150,4000,0,0,100,150,4000,0,0
5028351,6903.51,6904.11,10.89512,1.64227,60.0,100,150,4000,0,0,100,150,4000,0,0
5030965,6903.26,6903.86,10.62887,-0.26625,60.0,100,150,4000,0,0,100,150,4000,0,0
5031678,6903.01,6903.61,11.50881,0.87994,60.0,100,150,4000,0,0,100,150,4000,0,0
5032451,6903.26,6903.86,9.20705,-2.30176,60.0,100,150,4000,0,0,100,150,4000,0,0
5032631,6903.01,6903.61,10.36864,1.16159,60.0,100,150,4000,0,0,100,150,4000,0,0
5036095,6902.76,6903.36,9.73833,-0.63031,60.0,100,150,4000,0,0,100,150,4000,0,0
5043016,6903.01,6903.61,8.51300,-1.22533,60.0,100,150,4000,0,0,100,150,4000,0,0
5044428,6903.26,6903.86,10.35902,1.84602,60.0,100,150,4000,0,0,100,150,4000,0,0
5048135,6903.51,6904.11,9.63528,-0.72373,60.0,100,150,4000,0,0,100,150,4000,0,0
5048315,6903.76,6904.36,10.27958,0.64430,60.0,100,150,4000,0,0,100,150,4000,0,0
5048822,6904.01,6904.61,11.63664,1.35705,60.0,100,150,4000,0,0,100,150,4000,0,0
5050293,6903.76,6904.36,12.70836,1.07172,60.0,100,150,4000,0,0,100,150,4000,0,0
5050689,6903.51,6904.11,15.51714,2.80878,60.0,100,150,4000,0,0,100,150,4000,0,0
5051416,6903.26,6903.86,21.30260,5.78546,60.0,100,150,4000,0,0,100,150,4000,0,0
5052589,6903.51,6904.11,21.30466,0.00205,60.0,100,150,4000,0,0,100,150,4000,0,0
5053236,6903.26,6903.86,17.04372,-4.26093,60.0,100,150,4000,0,0,100,150,4000,0,0
5054119,6903.51,6904.11,13.63498,-3.40874,60.0,100,150,4000,0,0,100,150,4000,0,0
5056800,6903.07,6903.67,14.19034,0.55536,60.0,100,150,4000,0,0,100,150,4000,0,0
5057442,6903.01,6903.61,14.36341,0.17307,60.0,100,150,4000,0,0,100,150,4000,0,0
5058517,6903.26,6903.86,16.12895,1.76554,60.0,100,150,4000,0,0,100,150,4000,0,0
5060059,6903.51,6904.11,16.14781,0.01886,60.0,100,150,4000,0,0,100,150,4000,0,0
5060390,6903.38,6903.98,14.20098,-1.94682,60.0,100,150,4000,0,0,100,150,4000,0,0
5060540,6903.26,6903.86,11.36079,-2.84020,60.0,100,150,4000,0,0,100,150,4000,0,0
5060880,6903.51,6904.11,11.20637,-0.15441,60.0,100,150,4000,0,0,100,150,4000,0,0
5062793,6903.76,6904.36,11.58290,0.37653,60.0,100,150,4000,0,0,100,150,4000,0,0
5062954,6903.51,6904.11,9.26632,-2.31658,60.0,100,150,4000,0,0,100,150,4000,0,0
5063707,6903.26,6903.86,9.18172,-0.08460,60.0,100,150,4000,0,0,100,150,4000,0,0
5065160,6903.01,6903.61,10.79127,1.60956,60.0,100,150,4000,0,0,100,150,4000,0,0
5067729,6902.76,6903.36,10.58691,-0.20437,60.0,100,150,4000,0,0,100,150,4000,0,0
5072970,6903.26,6903.86,10.37284,-0.21407,60.0,100,150,4000,0,0,100,150,4000,0,0
5073907,6903.01,6903.61,9.10772,-1.26511,60.0,100,150,4000,0,0,100,150,4000,0,0
5074963,6902.76,6903.36,11.95908,2.85135,60.0,100,150,4000,0,0,100,150,4000,0,0
5076224,6903.01,6903.61,13.56726,1.60818,60.0,100,150,4000,0,0,100,150,4000,0,0
5078134,6903.26,6903.86,13.45527,-0.11200,60.0,100,150,4000,0,0,100,150,4000,0,0
5078673,6903.01,6903.61,10.76421,-2.69105,60.0,100,150,4000,0,0,100,150,4000,0,0
5081446,6902.76,6903.36,10.40928,-0.35493,60.0,100,150,4000,0,0,100,150,4000,0,0
5081770,6903.01,6903.61,8.32743,-2.08186,60.0,100,150,4000,0,0,100,150,4000,0,0
5082694,6902.76,6903.36,6.66194,-1.66549,60.0,100,150,4000,0,0,100,150,4000,0,0
5085199,6902.51,6903.11,7.32159,0.65964,60.0,100,150,4000,0,0,100,150,4000,0,0
5086014,6902.76,6903.36,5.85727,-1.46432,60.0,100,150,4000,0,0,100,150,4000,0,0
5086730,6902.51,6903.11,4.68581,-1.17145,60.0,100,150,4000,0,0,100,150,4000,0,0
5087846,6902.76,6903.36,8.24101,3.55520,60.0,100,150,4000,0,0,100,150,4000,0,0
5088843,6902.51,6903.11,6.59281,-1.64820,60.0,100,150,4000,0,0,100,150,4000,0,0
5089115,6902.26,6902.86,13.15447,6.56166,60.0,100,150,4000,0,0,100,150,4000,0,0
5089918,6902.01,6902.61,18.87779,5.72332,60.0,100,150,4000,0,0,100,150,4000,0,0
5090768,6901.76,6902.36,21.17757,2.29978,60.0,100,150,4000,0,0,100,150,4000,0,0
5091985,6902.01,6902.61,21.06407,-0.11350,60.0,100,150,4000,0,0,100,150,4000,0,0
