TimeMS,BestBid,BestAsk,Velocity,Acceleration,Spread,BidV1,BidV2,BidV3,BidV4,BidV5,AskV1,AskV2,AskV3,AskV4,AskV5
4127033,1.34275,1.34283,0.00000,0.00000,8.0,100000,500000,25000000,0,0,100000,500000,10000000,0,0
4127614,1.34275,1.34283,0.00000,0.00000,8.0,100000,1000000,25000000,0,0,100000,500000,10000000,0,0
4128689,1.34273,1.34282,0.00000,0.00000,8.5,100000,1000000,20000000,0,0,500000,100000,30000000,0,0
4131139,1.34273,1.34283,0.00000,0.00000,9.0,100000,1000000,20000000,0,0,600000,500000,40000000,0,0
4131742,1.34274,1.34283,0.00000,0.00000,9.0,100000,500000,10000000,0,0,600000,1500000,45000000,0,0
4132861,1.34274,1.34283,0.00000,0.00000,9.0,100000,500000,10000000,0,0,600000,500000,40000000,0,0
4134417,1.34274,1.34283,0.00000,0.00000,9.0,100000,1000000,25000000,0,0,600000,500000,40000000,0,0
4135638,1.34274,1.34283,0.00000,0.00000,9.0,600000,500000,25000000,0,0,600000,500000,40000000,0,0
4136573,1.34274,1.34283,0.00000,0.00000,9.0,100000,500000,10000000,0,0,600000,500000,20000000,0,0
4137737,1.34274,1.34283,0.00000,0.00000,9.0,100000,1000000,25000000,0,0,600000,500000,20000000,0,0
4139324,1.34275,1.34283,0.00000,0.00000,8.8,500000,600000,40000000,0,0,100000,1000000,5000000,0,0
4139510,1.34275,1.34284,0.02576,0.02576,8.8,500000,600000,20000000,0,0,100000,1000000,45000000,0,0
4139991,1.34275,1.34284,0.02576,0.02576,8.8,100000,1000000,45000000,0,0,600000,500000,40000000,0,0
4140887,1.34275,1.34284,0.02576,0.02576,8.8,100000,1000000,20000000,0,0,600000,500000,20000000,0,0
4141692,1.34275,1.34284,0.02576,0.02576,8.8,100000,1000000,45000000,0,0,600000,500000,40000000,0,0
4142220,1.34275,1.34283,0.05740,0.03164,8.7,100000,500000,30000000,0,0,500000,100000,30000000,0,0
4142399,1.34274,1.34283,0.11491,0.05751,8.7,600000,1500000,25000000,0,0,500000,600000,20000000,0,0
4143341,1.34274,1.34283,0.11491,0.05751,8.7,100000,500000,30000000,0,0,600000,500000,20000000,0,0
4144756,1.34274,1.34282,0.13437,0.01946,8.7,100000,1000000,25000000,0,0,500000,100000,30000000,0,0
4152163,1.34275,1.34283,0.13450,0.00013,8.6,500000,100000,10000000,0,0,100000,1500000,20000000,0,0
4156748,1.34275,1.34284,0.12941,-0.00509,8.6,500000,100000,10000000,0,0,1100000,1000000,45000000,0,0
4157635,1.34275,1.34283,0.10353,-0.02588,8.6,500000,100000,10000000,0,0,500000,600000,20000000,0,0
4158889,1.34274,1.34283,0.16366,0.06014,8.6,600000,500000,25000000,0,0,600000,500000,40000000,0,0
4159671,1.34274,1.34283,0.16366,0.06014,8.6,600000,500000,45000000,0,0,600000,500000,40000000,0,0
4162694,1.34275,1.34283,0.15709,-0.00657,8.6,500000,100000,10000000,0,0,600000,500000,20000000,0,0
4163382,1.34276,1.34284,0.19219,0.03510,8.5,500000,100000,30000000,0,0,100000,1500000,85200000,0,0
4164234,1.34276,1.34284,0.19219,0.03510,8.5,600000,500000,25000000,0,0,500000,600000,20000000,0,0
4166223,1.34276,1.34284,0.19219,0.03510,8.5,500000,100000,10000000,0,0,600000,1500000,25200000,0,0
4167148,1.34276,1.34284,0.19219,0.03510,8.5,600000,500000,25000000,0,0,600000,1500000,25200000,0,0
4168144,1.34276,1.34284,0.19219,0.03510,8.5,500000,100000,10000000,0,0,500000,100000,30000000,0,0
4169938,1.34276,1.34284,0.19219,0.03510,8.5,600000,500000,25000000,0,0,500000,100000,30000000,0,0
4170595,1.34277,1.34285,0.18148,-0.01071,8.5,500000,600000,20000000,0,0,100000,500000,20000000,0,0
4171534,1.34276,1.34285,0.15745,-0.02403,8.5,600000,500000,45000000,0,0,600000,2000000,40200000,0,0
4178854,1.34276,1.34284,0.13962,-0.01783,8.5,600000,500000,45000000,0,0,100000,500000,55000000,0,0
4179353,1.34275,1.34283,0.15006,0.01044,8.5,100000,1500000,30000000,0,0,500000,100000,20000000,0,0
4179520,1.34275,1.34283,0.15006,0.01044,8.5,500000,600000,40000000,0,0,100000,500000,45000000,0,0
4179897,1.34275,1.34284,0.21620,0.06614,8.5,500000,600000,40000000,0,0,600000,2500000,30200000,0,0
4180367,1.34275,1.34283,0.30674,0.09054,8.5,500000,600000,40000000,0,0,100000,500000,55000000,0,0
4186475,1.34275,1.34284,0.26172,-0.04502,8.5,500000,600000,40000000,0,0,600000,2500000,30200000,0,0
4186652,1.34274,1.34284,0.20938,-0.05234,8.6,600000,2500000,30000000,0,0,600000,2500000,30200000,0,0
4188463,1.34275,1.34284,0.22272,0.01334,8.6,100000,500000,55000000,0,0,600000,2500000,30200000,0,0
4188779,1.34274,1.34284,0.17817,-0.04454,8.6,600000,2500000,30000000,0,0,600000,2500000,30200000,0,0
4189777,1.34275,1.34284,0.14254,-0.03563,8.7,100000,500000,55000000,0,0,600000,2500000,30200000,0,0
4190595,1.34274,1.34284,0.11403,-0.02851,8.7,600000,2500000,30000000,0,0,600000,2500000,30200000,0,0
4191546,1.34274,1.34283,0.20422,0.09019,8.7,600000,2500000,30000000,0,0,100000,500000,55000000,0,0
4193613,1.34275,1.34284,0.26018,0.05596,8.7,100000,500000,55000000,0,0,600000,500000,40000000,0,0
4193798,1.34274,1.34283,0.20815,-0.05204,8.7,600000,2500000,30000000,0,0,100000,500000,10000000,0,0
4194829,1.34274,1.34283,0.20815,-0.05204,8.7,600000,2500000,30000000,0,0,100000,500000,55000000,0,0
4195508,1.34274,1.34284,0.22486,0.01671,8.8,600000,2500000,30000000,0,0,600000,2500000,30200000,0,0
4195696,1.34274,1.34283,0.17989,-0.04497,8.8,600000,2500000,30000000,0,0,100000,500000,55000000,0,0
4196053,1.34275,1.34284,0.23256,0.05268,8.8,100000,500000,55000000,0,0,600000,2500000,30200000,0,0
4197295,1.34274,1.34284,0.26663,0.03407,8.8,600000,2500000,30000000,0,0,600000,2500000,30200000,0,0
4198371,1.34275,1.34284,0.30590,0.03927,8.8,100000,500000,35000000,0,0,600000,2500000,90200000,0,0
4198553,1.34276,1.34285,0.48262,0.17673,8.8,100000,500000,45000000,0,0,600000,500000,40000000,0,0
4198847,1.34275,1.34284,0.45037,-0.03226,8.8,100000,500000,30000000,0,0,500000,100000,20000000,0,0
4199537,1.34276,1.34284,0.44620,-0.00416,8.8,100000,500000,35000000,0,0,500000,100000,20000000,0,0
4200608,1.34275,1.34284,0.45060,0.00439,8.8,100000,500000,30000000,0,0,600000,1000000,35000000,0,0
4201089,1.34275,1.34285,0.36048,-0.09012,8.8,600000,1500000,25000000,0,0,600000,2500000,30200000,0,0
4201917,1.34276,1.34285,0.44105,0.08058,8.9,100000,500000,30000000,0,0,600000,1500000,25000000,0,0
4202591,1.34277,1.34285,0.48618,0.04512,8.8,100000,500000,35000000,0,0,100000,500000,10000000,0,0
4202838,1.34277,1.34286,0.56066,0.07449,8.8,100000,500000,35000000,0,0,600000,500000,40000000,0,0
4203073,1.34277,1.34286,0.56066,0.07449,8.8,100000,500000,25000000,0,0,600000,500000,40000000,0,0
4203597,1.34277,1.34285,0.44853,-0.11213,8.8,100000,500000,25000000,0,0,100000,500000,10000000,0,0
4203860,1.34277,1.34286,0.35882,-0.08971,8.8,100000,500000,45000000,0,0,600000,500000,40000000,0,0
4204642,1.34277,1.34286,0.35882,-0.08971,8.8,100000,500000,55000000,0,0,600000,500000,40000000,0,0
4204980,1.34277,1.34286,0.35882,-0.08971,8.8,100000,500000,35000000,0,0,600000,500000,40000000,0,0
4205739,1.34276,1.34285,0.39356,0.03473,8.8,100000,2000000,30000000,0,0,600000,1500000,85200000,0,0
4206694,1.34275,1.34284,0.45609,0.06253,8.8,100000,500000,10000000,0,0,600000,2500000,30000000,0,0
4206927,1.34277,1.34286,0.53350,0.07742,8.8,100000,500000,10000000,0,0,500000,600000,20000000,0,0
4207890,1.34277,1.34286,0.53350,0.07742,8.8,100000,500000,55000000,0,0,600000,500000,20000000,0,0
4208759,1.34277,1.34286,0.53350,0.07742,8.8,100000,500000,55000000,0,0,500000,600000,20000000,0,0
4208970,1.34277,1.34285,0.47573,-0.05778,8.8,100000,500000,20000000,0,0,500000,100000,10000000,0,0
4209353,1.34277,1.34286,0.38058,-0.09515,8.8,100000,500000,55000000,0,0,1100000,2000000,30000000,0,0
4210183,1.34277,1.34286,0.38058,-0.09515,8.8,100000,500000,55000000,0,0,1100000,1000000,25000000,0,0
4211018,1.34277,1.34285,0.36463,-0.01595,8.8,100000,500000,15000000,0,0,500000,600000,20000000,0,0
4211833,1.34277,1.34285,0.36463,-0.01595,8.8,100000,500000,20000000,0,0,500000,600000,20000000,0,0
4212050,1.34274,1.34283,0.77480,0.41017,8.8,500000,250000,50000000,0,0,500000,500000,2000000,0,0
4212939,1.34274,1.34283,0.77480,0.41017,8.8,600000,2000000,40000000,0,0,500000,600000,40000000,0,0
4217738,1.34274,1.34283,0.61984,-0.15496,8.8,100000,500000,20000000,0,0,600000,500000,45000000,0,0
4224376,1.34275,1.34284,0.52600,-0.09384,8.8,100000,500000,55000000,0,0,600000,1000000,25200000,0,0
4225257,1.34274,1.34282,0.43409,-0.09190,8.8,600000,2500000,30000000,0,0,500000,100000,10000000,0,0
4226115,1.34274,1.34282,0.43409,-0.09190,8.8,100000,500000,30000000,0,0,500000,100000,10000000,0,0
4228003,1.34274,1.34282,0.43409,-0.09190,8.8,600000,2500000,30000000,0,0,500000,100000,10000000,0,0
4228818,1.34274,1.34282,0.43409,-0.09190,8.8,600000,1500000,25000000,0,0,500000,100000,10000000,0,0
4230689,1.34274,1.34282,0.43409,-0.09190,8.8,600000,1500000,5000000,0,0,500000,600000,20000000,0,0
4231480,1.34275,1.34284,0.39551,-0.03859,8.8,100000,500000,35000000,0,0,600000,1000000,5200000,0,0
4231760,1.34275,1.34283,0.34718,-0.04833,8.8,600000,1000000,15000000,0,0,500000,100000,10000000,0,0
4231964,1.34273,1.34282,0.29265,-0.05452,8.8,1000000,750000,70200000,0,0,500000,100000,10000000,0,0
4232657,1.34276,1.34284,0.31887,0.02621,8.8,100000,500000,35000000,0,0,100000,500000,45000000,0,0
4233012,1.34275,1.34283,0.54108,0.22221,8.8,100000,500000,55000000,0,0,500000,600000,20000000,0,0
4233291,1.34274,1.34282,0.50817,-0.03292,8.8,600000,1500000,25000000,0,0,500000,100000,10000000,0,0
4234297,1.34274,1.34282,0.50817,-0.03292,8.8,100000,500000,10000000,0,0,500000,100000,10000000,0,0
4237564,1.34274,1.34282,0.50817,-0.03292,8.8,100000,500000,10000000,0,0,500000,600000,20000000,0,0
4238635,1.34274,1.34282,0.50817,-0.03292,8.8,100000,500000,25000000,0,0,500000,600000,20000000,0,0
4240002,1.34273,1.34282,0.42145,-0.08672,8.8,600000,1000000,95200000,0,0,500000,100000,30000000,0,0
4240181,1.34269,1.34278,0.46794,0.04649,8.8,100000,500000,20000000,0,0,500000,100000,30000000,0,0
4241073,1.34269,1.34278,0.46794,0.04649,8.8,100000,500000,35000000,0,0,1100000,2000000,90200000,0,0
4241492,1.34269,1.34277,0.45016,-0.01777,8.8,100000,500000,25000000,0,0,500000,600000,40000000,0,0
4241877,1.34268,1.34277,0.47757,0.02741,8.8,100000,500000,20000000,0,0,1100000,1000000,25200000,0,0
4242503,1.34269,1.34277,0.38206,-0.09551,8.8,500000,100000,40000000,0,0,600000,750000,30000000,0,0
4243693,1.34272,1.34281,0.89388,0.51182,8.8,100000,500000,25000000,0,0,2100000,1250000,50000000,0,0
4243890,1.34272,1.34281,0.89388,0.51182,8.8,600000,2000000,90200000,0,0,600000,500000,25000000,0,0
4244323,1.34272,1.34281,0.89388,0.51182,8.8,100000,500000,20000000,0,0,500000,600000,40000000,0,0
4245403,1.34273,1.34281,0.77362,-0.12026,8.8,100000,500000,25000000,0,0,500000,600000,40000000,0,0
4245807,1.34273,1.34282,0.71450,-0.05912,8.8,100000,500000,25000000,0,0,600000,500000,45000000,0,0
4245990,1.34273,1.34281,0.61513,-0.09936,8.8,100000,500000,25000000,0,0,500000,500000,2000000,0,0
4246952,1.34273,1.34282,0.49211,-0.12303,8.8,100000,1500000,30000000,0,0,1000000,100000,20000000,0,0
4247844,1.34273,1.34282,0.49211,-0.12303,8.8,100000,500000,25000000,0,0,1000000,100000,40000000,0,0
4248312,1.34270,1.34280,0.76214,0.27004,8.9,1750000,2250000,70000000,0,0,500000,1500000,2000000,0,0
4248466,1.34267,1.34276,1.40179,0.63965,8.8,100000,500000,45000000,0,0,1100000,2000000,30000000,0,0
4248835,1.34266,1.34275,1.86770,0.46591,8.8,100000,500000,45000000,0,0,500000,600000,20000000,0,0
4249884,1.34268,1.34276,1.77825,-0.08945,8.8,100000,500000,25000000,0,0,600000,500000,45000000,0,0
4250476,1.34266,1.34276,1.48336,-0.29490,8.8,600000,2000000,30000000,0,0,1100000,2000000,30200000,0,0
4250748,1.34267,1.34275,1.23874,-0.24462,8.8,100000,500000,5000000,0,0,500000,600000,20000000,0,0
4251471,1.34267,1.34275,1.23874,-0.24462,8.8,100000,500000,45000000,0,0,500000,100000,10000000,0,0
4252139,1.34266,1.34276,0.99099,-0.24775,8.8,600000,2000000,40000000,0,0,1100000,2000000,30200000,0,0
4252307,1.34269,1.34278,1.11475,0.12376,8.8,100000,1500000,30000000,0,0,600000,500000,20000000,0,0
4252563,1.34269,1.34277,1.11255,-0.00220,8.8,100000,500000,25000000,0,0,100000,500000,10000000,0,0
4253605,1.34268,1.34277,0.98583,-0.12673,8.8,600000,2000000,40000000,0,0,100000,500000,10000000,0,0
4256669,1.34268,1.34277,0.98583,-0.12673,8.8,100000,500000,20000000,0,0,600000,1500000,25000000,0,0
4257940,1.34268,1.34278,0.81172,-0.17410,8.8,100000,500000,20000000,0,0,600000,500000,40000000,0,0
4258358,1.34268,1.34277,0.64938,-0.16234,8.8,100000,500000,20000000,0,0,500000,100000,30000000,0,0
4259387,1.34268,1.34277,0.64938,-0.16234,8.8,100000,500000,20000000,0,0,600000,1500000,25000000,0,0
4261346,1.34268,1.34277,0.64938,-0.16234,8.8,100000,500000,30000000,0,0,1100000,1000000,25000000,0,0
4262405,1.34268,1.34277,0.64938,-0.16234,8.8,100000,500000,10000000,0,0,1100000,2000000,30000000,0,0
4263363,1.34268,1.34277,0.64938,-0.16234,8.8,100000,500000,20000000,0,0,1100000,1000000,25000000,0,0
4264343,1.34268,1.34277,0.64938,-0.16234,8.8,100000,500000,30000000,0,0,1100000,1000000,25000000,0,0
4265048,1.34268,1.34277,0.64938,-0.16234,8.8,100000,500000,10000000,0,0,1000000,100000,20000000,0,0
4265678,1.34268,1.34278,0.53316,-0.11621,8.8,100000,500000,30000000,0,0,1100000,2000000,90200000,0,0
4266588,1.34269,1.34278,0.45083,-0.08233,8.8,100000,500000,30000000,0,0,1100000,1000000,25000000,0,0
4267731,1.34270,1.34278,0.44838,-0.00245,8.8,100000,500000,55000000,0,0,600000,500000,25000000,0,0
4267950,1.34269,1.34278,0.35871,-0.08968,8.8,100000,1500000,35000000,0,0,600000,500000,25000000,0,0
4269110,1.34269,1.34278,0.35871,-0.08968,8.8,100000,500000,30000000,0,0,600000,500000,45000000,0,0
4272182,1.34269,1.34277,0.31055,-0.04816,8.8,100000,500000,55000000,0,0,500000,600000,40000000,0,0
4272374,1.34268,1.34277,0.29358,-0.01697,8.8,100000,500000,30000000,0,0,1100000,1000000,25200000,0,0
4272560,1.34267,1.34276,0.32148,0.02790,8.7,100000,500000,30000000,0,0,1100000,1000000,25000000,0,0
4272943,1.34266,1.34275,0.37721,0.05573,8.7,600000,1500000,65200000,0,0,100000,500000,10000000,0,0
4273140,1.34265,1.34274,0.45567,0.07846,8.8,100000,500000,45000000,0,0,600000,2000000,30000000,0,0
4273302,1.34264,1.34273,1.16811,0.71244,8.8,100000,500000,20000000,0,0,500000,600000,40000000,0,0
4274925,1.34264,1.34273,1.16811,0.71244,8.8,100000,500000,20000000,0,0,600000,500000,45000000,0,0
4275487,1.34264,1.34272,0.98027,-0.18783,8.8,100000,500000,20000000,0,0,500000,600000,20000000,0,0
4276282,1.34264,1.34272,0.81778,-0.16250,8.7,600000,2000000,40000000,0,0,500000,100000,10000000,0,0
4276470,1.34264,1.34273,0.65422,-0.16356,8.7,600000,2000000,40000000,0,0,500000,600000,40000000,0,0
4277527,1.34264,1.34273,0.65422,-0.16356,8.7,600000,2000000,40000000,0,0,600000,500000,45000000,0,0
4278905,1.34264,1.34273,0.65422,-0.16356,8.7,100000,500000,20000000,0,0,1100000,1000000,25000000,0,0
4279967,1.34264,1.34273,0.65422,-0.16356,8.7,100000,500000,35000000,0,0,1100000,2000000,90200000,0,0
4280767,1.34264,1.34272,0.54664,-0.10758,8.7,100000,500000,35000000,0,0,500000,600000,40000000,0,0
4280918,1.34262,1.34270,0.54970,0.00306,8.7,600000,1500000,85200000,0,0,500000,100000,10000000,0,0
4281138,1.34262,1.34271,0.52539,-0.02430,8.7,600000,2000000,40200000,0,0,600000,500000,45000000,0,0
4281474,1.34263,1.34271,0.48025,-0.04514,8.7,100000,500000,20000000,0,0,500000,500000,2000000,0,0
4281992,1.34263,1.34271,0.48025,-0.04514,8.7,500000,2750000,35000000,0,0,500000,600000,40000000,0,0
4282457,1.34264,1.34273,0.68769,0.20744,8.7,100000,500000,55000000,0,0,600000,2000000,30200000,0,0
4282979,1.34264,1.34272,0.68296,-0.00474,8.7,600000,2000000,40000000,0,0,500000,100000,10000000,0,0
4283877,1.34266,1.34274,0.75748,0.07453,8.7,100000,500000,5000000,0,0,600000,1000000,25200000,0,0
4284841,1.34264,1.34272,0.60599,-0.15150,8.7,100000,500000,20000000,0,0,500000,600000,40000000,0,0
4285267,1.34265,1.34274,0.55678,-0.04920,8.7,100000,500000,35000000,0,0,600000,2000000,90200000,0,0
4286057,1.34264,1.34272,0.44543,-0.11136,8.7,100000,500000,20000000,0,0,500000,600000,40000000,0,0
4286332,1.34265,1.34274,0.35634,-0.08909,8.7,100000,500000,35000000,0,0,600000,2000000,90200000,0,0
4287046,1.34264,1.34272,0.45371,0.09737,8.7,100000,500000,35000000,0,0,500000,600000,40000000,0,0
4288006,1.34264,1.34272,0.45371,0.09737,8.7,100000,500000,15000000,0,0,500000,600000,40000000,0,0
4288907,1.34264,1.34272,0.45371,0.09737,8.7,100000,500000,20000000,0,0,500000,100000,10000000,0,0
4291299,1.34264,1.34273,0.38651,-0.06720,8.7,100000,500000,35000000,0,0,600000,1000000,25200000,0,0
4292634,1.34264,1.34273,0.38651,-0.06720,8.7,100000,500000,55000000,0,0,600000,1000000,25200000,0,0
4294772,1.34264,1.34273,0.38651,-0.06720,8.7,100000,500000,35000000,0,0,600000,1000000,25200000,0,0
4298237,1.34264,1.34273,0.38651,-0.06720,8.7,100000,500000,35000000,0,0,600000,2000000,30200000,0,0
4299218,1.34264,1.34273,0.38651,-0.06720,8.7,100000,500000,35000000,0,0,600000,1000000,25200000,0,0
4308926,1.34263,1.34271,0.32624,-0.06027,8.7,100000,500000,10000000,0,0,500000,500000,2000000,0,0
4310180,1.34263,1.34271,0.32624,-0.06027,8.7,600000,1500000,25000000,0,0,500000,600000,40000000,0,0
4312566,1.34263,1.34271,0.32624,-0.06027,8.7,100000,500000,30000000,0,0,500000,500000,2000000,0,0
4313739,1.34263,1.34271,0.32624,-0.06027,8.7,600000,2500000,30000000,0,0,500000,600000,20000000,0,0
4313996,1.34263,1.34271,0.32624,-0.06027,8.7,600000,2500000,30200000,0,0,500000,600000,40000000,0,0
4314527,1.34264,1.34273,0.31437,-0.01187,8.7,100000,500000,55000000,0,0,1000000,100000,20000000,0,0
4314999,1.34265,1.34273,0.31715,0.00277,8.7,100000,500000,5000000,0,0,1000000,100000,40000000,0,0
4315992,1.34265,1.34273,0.31715,0.00277,8.7,100000,500000,5000000,0,0,500000,600000,40000000,0,0
4316292,1.34263,1.34272,0.48592,0.16877,8.7,500000,250000,60000000,0,0,500000,600000,40000000,0,0
4316450,1.34265,1.34274,0.45779,-0.02812,8.7,100000,500000,5000000,0,0,600000,2000000,90200000,0,0
4317197,1.34265,1.34273,0.36624,-0.09156,8.7,100000,500000,5000000,0,0,500000,600000,20000000,0,0
4318934,1.34265,1.34273,0.36624,-0.09156,8.7,100000,500000,35000000,0,0,500000,600000,20000000,0,0
4321559,1.34265,1.34273,0.36624,-0.09156,8.7,100000,500000,35000000,0,0,500000,600000,40000000,0,0
4323814,1.34265,1.34274,0.30810,-0.05814,8.7,100000,500000,35000000,0,0,1100000,2000000,30200000,0,0
4324794,1.34265,1.34274,0.30810,-0.05814,8.7,100000,500000,35000000,0,0,1100000,1000000,5000000,0,0
4324961,1.34266,1.34274,0.33366,0.02556,8.7,100000,750000,20000000,0,0,1100000,2000000,90200000,0,0
4325920,1.34265,1.34273,0.31471,-0.01895,8.7,100000,500000,15000000,0,0,500000,600000,40000000,0,0
4328375,1.34264,1.34273,0.29230,-0.02241,8.7,100000,500000,10000000,0,0,500000,600000,40000000,0,0
4328800,1.34265,1.34274,0.26843,-0.02387,8.7,100000,500000,15000000,0,0,1100000,2000000,90200000,0,0
4329097,1.34264,1.34274,0.21475,-0.05369,8.7,100000,500000,10000000,0,0,1100000,2000000,90200000,0,0
4329504,1.34264,1.34273,0.17180,-0.04295,8.7,600000,1500000,25000000,0,0,500000,600000,40000000,0,0
4329736,1.34264,1.34274,0.21086,0.03906,8.7,600000,1500000,25000000,0,0,1100000,2000000,30200000,0,0
4330417,1.34264,1.34273,0.24444,0.03359,8.7,600000,1500000,25000000,0,0,100000,1000000,45000000,0,0
4332129,1.34264,1.34273,0.27131,0.02687,8.7,100000,500000,10000000,0,0,1100000,1000000,25000000,0,0
4332935,1.34264,1.34273,0.27131,0.02687,8.7,100000,500000,10000000,0,0,1000000,100000,20000000,0,0
4333619,1.34264,1.34274,0.24831,-0.02300,8.7,600000,1500000,25200000,0,0,1100000,2000000,30000000,0,0
4333915,1.34264,1.34274,0.24831,-0.02300,8.7,600000,1500000,5000000,0,0,1100000,1000000,5200000,0,0
4334239,1.34264,1.34273,0.19865,-0.04966,8.8,100000,500000,10000000,0,0,500000,600000,20000000,0,0
4335674,1.34264,1.34273,0.19865,-0.04966,8.8,100000,500000,10000000,0,0,600000,500000,40000000,0,0
4336659,1.34264,1.34274,0.20029,0.00164,8.8,100000,1000000,45000000,0,0,1100000,1000000,45000000,0,0
4337034,1.34264,1.34272,0.19605,-0.00424,8.7,100000,500000,15000000,0,0,500000,100000,10000000,0,0
4337267,1.34262,1.34272,0.25592,0.05987,8.8,600000,500000,25000000,0,0,500000,600000,20000000,0,0
4337971,1.34263,1.34272,0.43304,0.17713,8.8,100000,500000,10000000,0,0,600000,500000,40000000,0,0
4338799,1.34263,1.34272,0.43304,0.17713,8.8,600000,500000,40000000,0,0,100000,1000000,45000000,0,0
4339620,1.34263,1.34272,0.43304,0.17713,8.8,100000,1000000,25000000,0,0,600000,1500000,25000000,0,0
4340301,1.34264,1.34272,0.38941,-0.04363,8.7,100000,500000,10000000,0,0,100000,2000000,30000000,0,0
4340684,1.34263,1.34272,0.31153,-0.07788,8.7,100000,1000000,45000000,0,0,600000,500000,20000000,0,0
4341494,1.34264,1.34272,0.24922,-0.06231,8.7,100000,499000,10000000,0,0,100000,500000,10000000,0,0
4342170,1.34263,1.34272,0.19938,-0.04984,8.7,600000,1500000,5000000,0,0,100000,1000000,25000000,0,0
4342834,1.34264,1.34272,0.15950,-0.03988,8.7,100000,500000,10000000,0,0,100000,1000000,45000000,0,0
4343330,1.34264,1.34273,0.29987,0.14036,8.7,100000,500000,10000000,0,0,1100000,2000000,30200000,0,0
4345429,1.34263,1.34273,0.28774,-0.01213,8.7,600000,500000,20000000,0,0,1100000,2000000,30200000,0,0
4346573,1.34264,1.34273,0.31700,0.02926,8.7,100000,500000,10000000,0,0,600000,500000,40000000,0,0
4348703,1.34263,1.34273,0.30052,-0.01647,8.8,600000,500000,20000000,0,0,600000,500000,40000000,0,0
4348917,1.34262,1.34272,0.36846,0.06794,8.8,600000,500000,20000000,0,0,500000,600000,20000000,0,0
4349234,1.34263,1.34271,0.40747,0.03901,8.8,100000,500000,35000000,0,0,500000,500000,22000000,0,0
4349404,1.34263,1.34272,0.39669,-0.01077,8.8,500000,100000,30000000,0,0,600000,500000,20000000,0,0
4349847,1.34262,1.34272,0.49279,0.09610,8.8,100000,1000000,25000000,0,0,1100000,2000000,90200000,0,0
4350017,1.34262,1.34271,0.48506,-0.00773,8.8,100000,1000000,25000000,0,0,100000,500000,10000000,0,0
4350255,1.34262,1.34272,0.38805,-0.09701,8.8,600000,500000,20000000,0,0,1100000,2000000,30200000,0,0
4350456,1.34263,1.34272,0.31044,-0.07761,8.9,100000,500000,55000000,0,0,1100000,2000000,30200000,0,0
4351297,1.34263,1.34272,0.31044,-0.07761,8.9,100000,1000000,45000000,0,0,600000,500000,40000000,0,0
4352228,1.34263,1.34272,0.31044,-0.07761,8.9,100000,1000000,45000000,0,0,600000,500000,20000000,0,0
4352379,1.34263,1.34271,0.30019,-0.01025,8.9,100000,500000,15000000,0,0,500000,600000,20000000,0,0
4352553,1.34261,1.34271,0.38274,0.08255,8.9,1100000,2000000,90200000,0,0,100000,1000000,45000000,0,0
4352960,1.34262,1.34271,0.38590,0.00317,8.9,100000,1000000,25000000,0,0,600000,500000,40000000,0,0
4353785,1.34262,1.34271,0.38590,0.00317,8.9,100000,500000,10000000,0,0,600000,500000,20000000,0,0
4354872,1.34262,1.34271,0.38590,0.00317,8.9,100000,500000,10000000,0,0,600000,500000,40000000,0,0
4355632,1.34262,1.34272,0.34612,-0.03978,8.9,600000,500000,40000000,0,0,600000,500000,20000000,0,0
4356123,1.34264,1.34272,0.37165,0.02553,8.9,100000,500000,15000000,0,0,600000,500000,40000000,0,0
4356365,1.34263,1.34272,0.35601,-0.01565,8.9,100000,500000,10000000,0,0,600000,500000,40000000,0,0
4357581,1.34263,1.34271,0.36725,0.01124,8.9,100000,500000,15000000,0,0,500000,100000,30000000,0,0
4357848,1.34258,1.34266,1.03504,0.66779,8.9,100000,500000,10000000,0,0,500000,500000,22000000,0,0
4358130,1.34258,1.34266,1.03504,0.66779,8.9,500000,100000,10000000,0,0,100000,1000000,20000000,0,0
4359095,1.34257,1.34266,0.90816,-0.12688,8.9,600000,500000,25000000,0,0,600000,500000,45000000,0,0
4360341,1.34257,1.34266,0.90816,-0.12688,8.9,600000,500000,45000000,0,0,600000,500000,20000000,0,0
4360907,1.34257,1.34267,0.78184,-0.12632,9.0,1100000,1000000,45000000,0,0,1100000,1000000,25000000,0,0
4361132,1.34259,1.34268,0.82329,0.04146,9.0,1100000,2000000,90200000,0,0,500000,100000,10000000,0,0
4361689,1.34259,1.34268,0.82329,0.04146,9.0,1100000,1000000,65200000,0,0,500000,100000,10000000,0,0
4361862,1.34260,1.34269,0.87666,0.05336,9.0,100000,1000000,45000000,0,0,1100000,1000000,25000000,0,0
4362668,1.34260,1.34269,0.87666,0.05336,9.0,100000,1000000,25000000,0,0,600000,500000,45000000,0,0
4363127,1.34259,1.34269,0.77945,-0.09721,9.0,1100000,1000000,65200000,0,0,600000,500000,45000000,0,0
4363363,1.34259,1.34268,0.75566,-0.02379,9.0,1100000,1000000,5200000,0,0,500000,600000,20000000,0,0
4364200,1.34259,1.34268,0.75566,-0.02379,9.0,1100000,1000000,65200000,0,0,500000,100000,10000000,0,0
4364869,1.34260,1.34268,0.67111,-0.08455,9.0,500000,600000,20000000,0,0,500000,100000,10000000,0,0
4365122,1.34258,1.34268,0.59446,-0.07665,9.0,600000,500000,45000000,0,0,1100000,1000000,65200000,0,0
4365297,1.34258,1.34267,0.57898,-0.01548,9.0,600000,500000,45000000,0,0,100000,1000000,45000000,0,0
4366204,1.34258,1.34267,0.57898,-0.01548,9.0,1100000,1000000,25000000,0,0,600000,500000,45000000,0,0
4366378,1.34258,1.34266,0.55708,-0.02190,9.0,600000,500000,25000000,0,0,500000,600000,20000000,0,0
4366565,1.34255,1.34264,0.92185,0.36477,9.0,1100000,1000000,45000000,0,0,500000,500000,2000000,0,0
4367374,1.34255,1.34264,0.92185,0.36477,9.0,1100000,1000000,25200000,0,0,100000,1000000,25000000,0,0
4367553,1.34255,1.34264,0.92185,0.36477,9.0,1100000,1000000,85200000,0,0,100000,500000,10000000,0,0
4367715,1.34255,1.34264,0.92185,0.36477,9.0,500000,600000,40000000,0,0,500000,600000,20000000,0,0
4368580,1.34255,1.34264,0.92185,0.36477,9.0,600000,500000,25000000,0,0,1100000,2000000,30000000,0,0
4369392,1.34255,1.34264,0.92185,0.36477,9.0,600000,500000,25000000,0,0,1100000,1000000,25000000,0,0
4370462,1.34255,1.34264,0.92185,0.36477,9.0,600000,500000,45000000,0,0,1100000,1000000,25000000,0,0
4371630,1.34255,1.34264,0.92185,0.36477,9.0,1100000,1000000,85200000,0,0,100000,500000,10000000,0,0
4372717,1.34256,1.34265,0.76995,-0.15190,9.1,500000,100000,10000000,0,0,1100000,1000000,45000000,0,0
4373363,1.34256,1.34265,0.76995,-0.15190,9.1,500000,600000,20000000,0,0,1100000,1000000,45000000,0,0
4373563,1.34256,1.34264,0.63025,-0.13970,9.1,500000,600000,20000000,0,0,100000,1000000,20000000,0,0
4375651,1.34255,1.34264,0.55200,-0.07825,9.1,1100000,2000000,30000000,0,0,100000,1000000,45000000,0,0
4376720,1.34255,1.34264,0.55200,-0.07825,9.1,600000,500000,45000000,0,0,500000,600000,20000000,0,0
4380462,1.34255,1.34265,0.46241,-0.08959,9.1,1100000,1000000,85200000,0,0,600000,500000,20000000,0,0
4380811,1.34255,1.34265,0.46241,-0.08959,9.1,600000,500000,45000000,0,0,1100000,2000000,90200000,0,0
4381183,1.34255,1.34264,0.36993,-0.09248,9.1,600000,500000,45000000,0,0,500000,600000,40000000,0,0
4381676,1.34255,1.34265,0.29594,-0.07399,9.1,600000,500000,45000000,0,0,1100000,2000000,90200000,0,0
4381893,1.34255,1.34264,0.30727,0.01133,9.1,600000,500000,45000000,0,0,500000,600000,20000000,0,0
4385375,1.34255,1.34265,0.27437,-0.03290,9.1,1100000,1000000,25000000,0,0,1100000,2000000,30200000,0,0
4385561,1.34255,1.34264,0.21950,-0.05487,9.1,600000,500000,45000000,0,0,500000,600000,20000000,0,0
4386212,1.34255,1.34265,0.19866,-0.02084,9.1,600000,500000,45000000,0,0,1100000,2000000,90200000,0,0
4386398,1.34258,1.34267,0.65154,0.45288,9.1,100000,2000000,25000000,0,0,1100000,1000000,5200000,0,0
4386630,1.34256,1.34266,0.80532,0.15378,9.1,1100000,2000000,30200000,0,0,1100000,2000000,30000000,0,0
4386841,1.34257,1.34265,0.87882,0.07349,9.1,100000,1000000,25000000,0,0,500000,600000,20000000,0,0
4387312,1.34257,1.34265,0.87882,0.07349,9.1,100000,1000000,45000000,0,0,500000,600000,20000000,0,0
4387565,1.34257,1.34266,0.87298,-0.00584,9.1,100000,1000000,45000000,0,0,1100000,1000000,25200000,0,0
4387829,1.34257,1.34265,0.69838,-0.17460,9.0,100000,1000000,45000000,0,0,500000,600000,20000000,0,0
4388412,1.34257,1.34266,0.62232,-0.07606,9.1,100000,500000,10000000,0,0,1100000,1000000,85200000,0,0
4389807,1.34258,1.34267,0.64133,0.01901,9.1,100000,1000000,25000000,0,0,1100000,1000000,25200000,0,0
4390097,1.34258,1.34266,0.57241,-0.06892,9.1,100000,500000,10000000,0,0,500000,600000,20000000,0,0
4390915,1.34258,1.34266,0.57241,-0.06892,9.1,600000,500000,5000000,0,0,500000,600000,20000000,0,0
4391096,1.34258,1.34267,0.45793,-0.11448,9.1,600000,500000,5000000,0,0,1100000,1000000,85200000,0,0
4391293,1.34258,1.34266,0.36634,-0.09159,9.1,100000,500000,10000000,0,0,500000,600000,20000000,0,0
4392194,1.34258,1.34266,0.36634,-0.09159,9.1,600000,500000,5000000,0,0,500000,600000,20000000,0,0
4392714,1.34257,1.34266,0.36350,-0.00285,9.1,500000,600000,40000000,0,0,600000,500000,20000000,0,0
4392890,1.34257,1.34266,0.36350,-0.00285,9.1,500000,600000,40000000,0,0,1100000,1000000,25000000,0,0
4393577,1.34257,1.34265,0.37836,0.01487,9.0,100000,1000000,45000000,0,0,500000,600000,20000000,0,0
4393815,1.34257,1.34266,0.30269,-0.07567,9.0,100000,1000000,45000000,0,0,1100000,1000000,25200000,0,0
4395012,1.34256,1.34264,0.49215,0.18946,9.0,100000,1000000,45000000,0,0,500000,100000,10000000,0,0
4395280,1.34257,1.34265,0.46184,-0.03031,8.9,100000,500000,10000000,0,0,500000,600000,20000000,0,0
4395454,1.34257,1.34266,0.36947,-0.09237,9.0,500000,600000,40000000,0,0,1100000,1000000,25200000,0,0
4396907,1.34257,1.34266,0.29558,-0.07389,9.0,100000,1000000,25000000,0,0,1100000,2000000,30200000,0,0
4397521,1.34257,1.34265,0.28466,-0.01092,8.9,100000,500000,10000000,0,0,500000,600000,20000000,0,0
4397912,1.34257,1.34266,0.22772,-0.05693,8.9,100000,500000,10000000,0,0,1100000,2000000,90200000,0,0
4398083,1.34257,1.34265,0.26685,0.03913,8.9,100000,500000,10000000,0,0,500000,600000,20000000,0,0
4398644,1.34256,1.34264,0.39174,0.12488,8.9,100000,1000000,25000000,0,0,500000,600000,20000000,0,0
4398977,1.34255,1.34265,0.59508,0.20334,8.9,1100000,1000000,25000000,0,0,1100000,1000000,25200000,0,0
4399229,1.34256,1.34265,0.56355,-0.03153,8.9,500000,600000,20000000,0,0,1100000,1000000,25200000,0,0
4399706,1.34255,1.34265,0.45084,-0.11271,8.9,1100000,1000000,25200000,0,0,1100000,1000000,25000000,0,0
4399914,1.34255,1.34264,0.43935,-0.01149,8.9,1100000,1000000,25000000,0,0,100000,1000000,25000000,0,0
4401396,1.34256,1.34264,0.41891,-0.02044,8.9,100000,1000000,25000000,0,0,500000,600000,20000000,0,0
4401806,1.34255,1.34263,0.38801,-0.03090,8.9,500000,750000,10000000,0,0,500000,1600000,60200000,0,0
4402071,1.34253,1.34263,0.44943,0.06142,8.9,1250000,500000,60000000,0,0,1000000,1100000,80200000,0,0
4402334,1.34256,1.34264,0.40086,-0.04856,8.9,100000,500000,15000000,0,0,1000000,100000,20000000,0,0
4402654,1.34255,1.34263,0.48005,0.07919,8.9,100000,500000,10000000,0,0,1000000,1100000,20000000,0,0
4402864,1.34254,1.34263,0.47847,-0.00158,8.9,600000,500000,45000000,0,0,1000000,100000,20000000,0,0
4403443,1.34253,1.34263,0.74411,0.26564,8.9,600000,500000,45000000,0,0,1100000,1000000,65200000,0,0
4403629,1.34251,1.34261,1.21305,0.46894,8.9,750000,500000,60000000,0,0,500000,1500000,2200000,0,0
4403822,1.34250,1.34258,1.82661,0.61355,8.9,500000,1000000,10000000,0,0,1000000,1000000,45000000,0,0
4404165,1.34249,1.34257,2.30614,0.47953,8.8,1000000,1000000,70000000,0,0,500000,500000,20000000,0,0
4404611,1.34250,1.34260,2.36082,0.05468,8.9,1250000,1500000,65000000,0,0,1000000,1000000,22000000,0,0
4404765,1.34251,1.34259,2.06502,-0.29580,8.8,500000,1500000,27000000,0,0,500000,500000,25000000,0,0
4405231,1.34250,1.34260,2.02831,-0.03671,8.9,1000000,1000000,22000000,0,0,1250000,500000,60000000,0,0
4406004,1.34251,1.34259,1.62265,-0.40566,8.9,500000,600000,40000000,0,0,100000,1000000,45000000,0,0
4406331,1.34252,1.34260,1.48010,-0.14255,8.8,500000,500000,42000000,0,0,100000,500000,10000000,0,0
4406494,1.34253,1.34262,1.58281,0.10270,8.8,500000,500000,42000000,0,0,500000,750000,30000000,0,0
4406704,1.34253,1.34261,1.53780,-0.04501,8.8,500000,500000,2000000,0,0,100000,1000000,45000000,0,0
4407924,1.34253,1.34262,1.31742,-0.22038,8.8,600000,500000,25000000,0,0,1000000,100000,40000000,0,0
4408001,1.34253,1.34263,1.20790,-0.10952,8.8,500000,600000,40000000,0,0,1100000,1000000,45000000,0,0
4408377,1.34253,1.34263,1.20790,-0.10952,8.8,1100000,1000000,85200000,0,0,600000,1500000,25000000,0,0
4408533,1.34254,1.34262,1.07555,-0.13235,8.8,100000,1000000,45000000,0,0,500000,100000,10000000,0,0
4409493,1.34254,1.34263,0.92747,-0.14809,8.8,600000,500000,45000000,0,0,600000,500000,20000000,0,0
4411894,1.34255,1.34263,0.78362,-0.14384,8.8,100000,500000,10000000,0,0,500000,100000,10000000,0,0
4412097,1.34255,1.34263,0.78362,-0.14384,8.8,100000,500000,10000000,0,0,1000000,100000,20000000,0,0
4412785,1.34254,1.34263,0.62690,-0.15672,8.8,600000,500000,20000000,0,0,500000,600000,20000000,0,0
4413352,1.34255,1.34263,0.50152,-0.12538,8.7,100000,1000000,45000000,0,0,500000,600000,40000000,0,0
4413644,1.34256,1.34264,0.51550,0.01398,8.7,100000,1000000,45000000,0,0,100000,1000000,45000000,0,0
4413978,1.34256,1.34264,0.51550,0.01398,8.7,100000,1000000,25000000,0,0,100000,1000000,45000000,0,0
4414139,1.34255,1.34264,0.56011,0.04461,8.7,1100000,1000000,5200000,0,0,600000,500000,45000000,0,0
4414292,1.34254,1.34263,0.44809,-0.11202,8.7,600000,500000,25000000,0,0,500000,600000,20000000,0,0
4415213,1.34254,1.34263,0.44809,-0.11202,8.7,600000,500000,45000000,0,0,1100000,1000000,5000000,0,0
4417717,1.34254,1.34263,0.44809,-0.11202,8.7,600000,500000,25000000,0,0,1100000,1000000,5000000,0,0
4419082,1.34254,1.34263,0.44809,-0.11202,8.7,600000,500000,45000000,0,0,600000,500000,25000000,0,0
4419882,1.34254,1.34262,0.37638,-0.07171,8.7,600000,500000,25000000,0,0,100000,750000,20000000,0,0
4420100,1.34256,1.34264,0.35275,-0.02362,8.7,100000,1000000,25000000,0,0,600000,500000,25000000,0,0
4420577,1.34255,1.34263,0.29814,-0.05461,8.7,1100000,1250000,30200000,0,0,100000,500000,10000000,0,0
4421125,1.34256,1.34264,0.23851,-0.05963,8.6,100000,1000000,5000000,0,0,600000,500000,5000000,0,0
4421480,1.34255,1.34263,0.33563,0.09712,8.6,1100000,1250000,30200000,0,0,100000,500000,10000000,0,0
4421796,1.34254,1.34262,0.45577,0.12014,8.6,100000,500000,5000000,0,0,100000,1250000,10000000,0,0
4422610,1.34254,1.34262,0.45577,0.12014,8.6,600000,500000,5000000,0,0,100000,500000,15000000,0,0
4423639,1.34254,1.34262,0.45577,0.12014,8.6,1100000,1250000,30000000,0,0,100000,500000,15000000,0,0
4423964,1.34255,1.34264,0.49432,0.03855,8.6,100000,500000,10000000,0,0,1100000,1000000,85200000,0,0
4424855,1.34255,1.34263,0.45757,-0.03675,8.6,100000,500000,10000000,0,0,500000,600000,20000000,0,0
4425855,1.34255,1.34263,0.45757,-0.03675,8.6,100000,500000,10000000,0,0,1100000,1000000,5000000,0,0
4425904,1.34254,1.34263,0.46138,0.00382,8.6,600000,500000,45000000,0,0,600000,500000,25000000,0,0
4426231,1.34254,1.34262,0.51467,0.05328,8.6,100000,1000000,25000000,0,0,500000,600000,20000000,0,0
4426541,1.34253,1.34261,0.64912,0.13446,8.6,500000,600000,40000000,0,0,100000,1000000,45000000,0,0
4426714,1.34252,1.34261,0.78869,0.13957,8.6,500000,600000,40000000,0,0,1100000,1000000,5000000,0,0
4426919,1.34253,1.34262,0.82819,0.03950,8.6,500000,600000,20000000,0,0,1100000,2000000,30000000,0,0
4427219,1.34250,1.34259,1.27231,0.44412,8.6,250000,1000000,40000000,0,0,500000,1000000,32000000,0,0
4427588,1.34249,1.34257,1.78121,0.50890,8.6,600000,2000000,30200000,0,0,100000,500000,15000000,0,0
4428115,1.34249,1.34257,1.78121,0.50890,8.6,600000,1000000,25000000,0,0,100000,1000000,5000000,0,0
4428420,1.34250,1.34259,1.42497,-0.35624,8.6,600000,500000,40000000,0,0,600000,500000,25000000,0,0
4428925,1.34251,1.34259,1.43960,0.01463,8.6,500000,600000,20000000,0,0,600000,500000,5000000,0,0
4429210,1.34250,1.34259,1.33675,-0.10285,8.6,1100000,2000000,90200000,0,0,600000,500000,5000000,0,0
4429385,1.34250,1.34258,1.18076,-0.15599,8.6,600000,500000,45000000,0,0,100000,500000,10000000,0,0
4429785,1.34247,1.34256,1.38481,0.20405,8.6,250000,1000000,20000000,0,0,500000,100000,30200000,0,0
4430231,1.34248,1.34257,1.50039,0.11558,8.6,100000,1000000,45000000,0,0,600000,500000,45000000,0,0
4431504,1.34248,1.34257,1.50039,0.11558,8.6,100000,1000000,25000000,0,0,600000,500000,45000000,0,0
4432127,1.34250,1.34258,1.35837,-0.14202,8.6,100000,1250000,10000000,0,0,600000,2250000,95200000,0,0
4432345,1.34250,1.34259,1.27574,-0.08264,8.6,600000,500000,45000000,0,0,1100000,2000000,30000000,0,0
4432644,1.34250,1.34258,1.14491,-0.13082,8.6,600000,500000,45000000,0,0,100000,500000,10000000,0,0
4432858,1.34249,1.34258,0.99206,-0.15285,8.6,1100000,2000000,30000000,0,0,100000,1000000,45000000,0,0
4433820,1.34251,1.34259,0.96357,-0.02849,8.6,500000,500000,2000000,0,0,100000,500000,10000000,0,0
4434084,1.34249,1.34257,0.85229,-0.11128,8.6,100000,2000000,25000000,0,0,100000,750000,20000000,0,0
4434593,1.34250,1.34258,0.73941,-0.11289,8.6,600000,2000000,30000000,0,0,100000,750000,20000000,0,0
4435486,1.34250,1.34258,0.73941,-0.11289,8.6,600000,2000000,30000000,0,0,100000,500000,15000000,0,0
4436498,1.34250,1.34258,0.73941,-0.11289,8.6,600000,2000000,30200000,0,0,100000,500000,15000000,0,0
4437782,1.34253,1.34261,0.77973,0.04032,8.5,100000,500000,10000000,0,0,600000,500000,5000000,0,0
4437941,1.34250,1.34258,0.62378,-0.15595,8.5,100000,500000,10000000,0,0,600000,500000,45000000,0,0
4438131,1.34248,1.34257,0.58380,-0.03999,8.5,1100000,1000000,25200000,0,0,600000,500000,45000000,0,0
4438340,1.34248,1.34256,0.57376,-0.01004,8.5,1100000,1000000,5000000,0,0,100000,500000,10000000,0,0
4438916,1.34249,1.34258,1.07958,0.50582,8.5,500000,600000,40000000,0,0,1000000,250000,30000000,0,0
4439256,1.34251,1.34259,1.30811,0.22853,8.5,100000,750000,10000000,0,0,100000,1000000,65200000,0,0
4439424,1.34249,1.34258,1.32375,0.01564,8.5,250000,1500000,20000000,0,0,500000,600000,45000000,0,0
4439620,1.34251,1.34259,1.53070,0.20695,8.4,100000,250000,30000000,0,0,600000,2250000,95200000,0,0
4439777,1.34254,1.34262,2.06138,0.53068,8.4,100000,250000,30000000,0,0,1100000,250000,50000000,0,0
4440549,1.34256,1.34264,2.80466,0.74328,8.4,100000,750000,20000000,0,0,1100000,1010000,30000000,0,0
4440785,1.34256,1.34264,2.80466,0.74328,8.4,100000,250000,20000000,0,0,1100000,4010000,30000000,0,0
4441326,1.34253,1.34261,2.37284,-0.43182,8.4,250000,1000000,20000000,0,0,500000,500000,20000000,0,0
4441672,1.34254,1.34262,2.25383,-0.11901,8.4,100000,750000,20000000,0,0,1100000,1000000,50000000,0,0
4441964,1.34254,1.34262,2.25383,-0.11901,8.4,100000,750000,20000000,0,0,600000,1000000,50000000,0,0
4442127,1.34252,1.34262,2.18305,-0.07078,8.4,1250000,500000,40000000,0,0,500000,600000,20000000,0,0
4443235,1.34252,1.34261,1.83710,-0.34595,8.4,750000,1000000,20000000,0,0,500000,500000,22000000,0,0
4443411,1.34255,1.34263,1.78097,-0.05614,8.4,100000,500000,5000000,0,0,100000,2000000,85200000,0,0
4443583,1.34255,1.34263,1.78097,-0.05614,8.4,100000,500000,5000000,0,0,1100000,1000000,85200000,0,0
4443819,1.34252,1.34262,1.42477,-0.35619,8.4,750000,1000000,20000000,0,0,500000,100000,40000000,0,0
4444300,1.34253,1.34262,1.32656,-0.09821,8.5,100000,500000,10000000,0,0,1100000,1000000,85200000,0,0
4444864,1.34253,1.34261,1.06125,-0.26531,8.4,100000,500000,10000000,0,0,500000,600000,20000000,0,0
4445335,1.34253,1.34261,1.06125,-0.26531,8.4,500000,100000,10000000,0,0,500000,500000,22000000,0,0
4446342,1.34253,1.34261,1.06125,-0.26531,8.4,600000,500000,5000000,0,0,500000,1600000,60200000,0,0
4446505,1.34253,1.34262,0.90997,-0.15127,8.5,600000,500000,25000000,0,0,1000000,100000,20000000,0,0
4447305,1.34253,1.34262,0.90997,-0.15127,8.5,100000,1000000,45000000,0,0,1000000,100000,20000000,0,0
4448591,1.34253,1.34262,0.90997,-0.15127,8.5,600000,500000,25000000,0,0,1000000,100000,40000000,0,0
4449128,1.34253,1.34261,0.76808,-0.14190,8.5,100000,500000,10000000,0,0,500000,500000,22000000,0,0
4449265,1.34252,1.34262,0.65132,-0.11676,8.5,600000,500000,45000000,0,0,1100000,2000000,90200000,0,0
4449473,1.34253,1.34262,0.52106,-0.13026,8.5,500000,100000,10000000,0,0,600000,500000,40000000,0,0
4451290,1.34253,1.34262,0.52106,-0.13026,8.5,600000,500000,5000000,0,0,1000000,100000,20000000,0,0
4453031,1.34253,1.34262,0.52106,-0.13026,8.5,600000,500000,25000000,0,0,1000000,100000,20000000,0,0
4453853,1.34253,1.34262,0.52106,-0.13026,8.5,100000,500000,10000000,0,0,1100000,1000000,85200000,0,0
4454380,1.34253,1.34261,0.43722,-0.08384,8.5,100000,1000000,25000000,0,0,500000,500000,2000000,0,0
4454716,1.34252,1.34262,0.36884,-0.06838,8.5,600000,500000,25000000,0,0,1000000,100000,20000000,0,0
4454971,1.34252,1.34261,0.33144,-0.03740,8.5,100000,1000000,25000000,0,0,500000,500000,2000000,0,0
4455584,1.34252,1.34262,0.26515,-0.06629,8.6,600000,500000,25000000,0,0,1000000,100000,20000000,0,0
4456200,1.34253,1.34262,0.37472,0.10957,8.6,500000,600000,20000000,0,0,1000000,100000,40000000,0,0
4456384,1.34253,1.34263,0.51239,0.13767,8.6,1100000,1000000,5000000,0,0,1100000,1000000,45000000,0,0
4456797,1.34254,1.34263,0.66054,0.14815,8.6,500000,600000,20000000,0,0,600000,500000,20000000,0,0
4456956,1.34253,1.34263,0.67421,0.01366,8.7,1100000,1000000,65200000,0,0,600000,500000,20000000,0,0
4457172,1.34254,1.34263,0.72816,0.05396,8.7,600000,500000,25000000,0,0,600000,500000,20000000,0,0
4459160,1.34254,1.34263,0.72816,0.05396,8.7,600000,500000,25000000,0,0,100000,1000000,45000000,0,0
4460004,1.34254,1.34263,0.72816,0.05396,8.7,600000,500000,25000000,0,0,1100000,1000000,5000000,0,0
4460817,1.34254,1.34263,0.72816,0.05396,8.7,600000,500000,25000000,0,0,1100000,1000000,25000000,0,0
4461698,1.34254,1.34263,0.72816,0.05396,8.7,100000,1000000,25000000,0,0,1100000,1000000,25000000,0,0
4462713,1.34254,1.34263,0.72816,0.05396,8.7,600000,500000,25000000,0,0,1100000,1000000,25000000,0,0
4464321,1.34254,1.34263,0.72816,0.05396,8.7,600000,500000,25000000,0,0,600000,500000,20000000,0,0
4465421,1.34254,1.34263,0.72816,0.05396,8.7,100000,500000,10000000,0,0,1100000,1000000,85200000,0,0
4466768,1.34254,1.34263,0.72816,0.05396,8.7,600000,500000,5000000,0,0,1100000,1000000,85200000,0,0
4467592,1.34254,1.34263,0.72816,0.05396,8.7,1100000,1000000,5000000,0,0,600000,500000,20000000,0,0
4470110,1.34254,1.34263,0.72816,0.05396,8.7,1100000,1000000,5000000,0,0,100000,1000000,25000000,0,0
4473642,1.34254,1.34263,0.72816,0.05396,8.7,500000,600000,20000000,0,0,1100000,1000000,5000000,0,0
4474533,1.34254,1.34263,0.72816,0.05396,8.7,600000,500000,25000000,0,0,600000,500000,20000000,0,0
4474865,1.34255,1.34263,0.58818,-0.13998,8.7,100000,1000000,25000000,0,0,500000,600000,40000000,0,0
4475041,1.34254,1.34262,0.47614,-0.11204,8.7,600000,500000,5000000,0,0,500000,1600000,80200000,0,0
4475778,1.34254,1.34263,0.38091,-0.09523,8.7,100000,500000,10000000,0,0,1100000,1000000,65200000,0,0
4476815,1.34254,1.34263,0.38091,-0.09523,8.7,600000,500000,5000000,0,0,1100000,2000000,90200000,0,0
4478819,1.34254,1.34263,0.38091,-0.09523,8.7,100000,500000,10000000,0,0,1100000,2000000,90200000,0,0
4479360,1.34254,1.34263,0.38091,-0.09523,8.7,100000,500000,10000000,0,0,1100000,1000000,85200000,0,0
4479908,1.34254,1.34262,0.32894,-0.05197,8.7,100000,500000,10000000,0,0,500000,600000,40000000,0,0
4481370,1.34254,1.34262,0.32894,-0.05197,8.7,100000,1000000,25000000,0,0,500000,600000,40000000,0,0
4482465,1.34254,1.34262,0.32894,-0.05197,8.7,100000,500000,10000000,0,0,500000,600000,20000000,0,0
4483272,1.34254,1.34263,0.29285,-0.03609,8.7,100000,500000,10000000,0,0,1100000,1000000,85200000,0,0
4483810,1.34254,1.34262,0.23428,-0.05857,8.7,100000,500000,10000000,0,0,500000,600000,20000000,0,0
4484059,1.34253,1.34263,0.18743,-0.04686,8.7,1100000,1000000,5000000,0,0,1100000,1000000,25200000,0,0
4484316,1.34254,1.34263,0.14994,-0.03749,8.7,100000,1000000,25000000,0,0,1100000,1000000,25200000,0,0
4485203,1.34254,1.34262,0.11995,-0.02999,8.7,100000,1000000,25000000,0,0,500000,600000,20000000,0,0
4486661,1.34254,1.34262,0.11995,-0.02999,8.7,100000,500000,10000000,0,0,500000,600000,40000000,0,0
4489101,1.34254,1.34262,0.11995,-0.02999,8.7,100000,1000000,25000000,0,0,500000,600000,40000000,0,0
4489612,1.34254,1.34263,0.11862,-0.00133,8.7,100000,1000000,25000000,0,0,1100000,2000000,30200000,0,0
4489813,1.34254,1.34262,0.09490,-0.02372,8.7,100000,1000000,25000000,0,0,500000,600000,40000000,0,0
4490618,1.34254,1.34263,0.07592,-0.01898,8.7,100000,1000000,25000000,0,0,1100000,2000000,30200000,0,0
4490819,1.34254,1.34262,0.06073,-0.01518,8.7,100000,1000000,25000000,0,0,500000,600000,40000000,0,0
4491376,1.34254,1.34263,0.11261,0.05187,8.7,100000,1000000,25000000,0,0,1100000,2000000,30200000,0,0
4491631,1.34254,1.34262,0.18929,0.07668,8.7,100000,1000000,25000000,0,0,500000,600000,40000000,0,0
4492880,1.34253,1.34262,0.23176,0.04246,8.7,1100000,1000000,25000000,0,0,500000,600000,40000000,0,0
4493258,1.34254,1.34262,0.18540,-0.04635,8.7,100000,500000,10000000,0,0,500000,600000,40000000,0,0
4493653,1.34254,1.34263,0.19800,0.01260,8.7,100000,1000000,25000000,0,0,1100000,1000000,45000000,0,0
4493821,1.34254,1.34263,0.19800,0.01260,8.7,100000,500000,10000000,0,0,1100000,1000000,85200000,0,0
4494058,1.34254,1.34262,0.24358,0.04558,8.7,100000,1000000,25000000,0,0,500000,100000,30000000,0,0
4494572,1.34253,1.34263,0.19486,-0.04872,8.7,1100000,1000000,85200000,0,0,600000,1500000,25000000,0,0
4494621,1.34254,1.34263,0.22958,0.03472,8.8,100000,1000000,25000000,0,0,1100000,1000000,45000000,0,0
4495555,1.34254,1.34262,0.18367,-0.04592,8.7,100000,1000000,25000000,0,0,500000,600000,20000000,0,0
4496398,1.34254,1.34263,0.14693,-0.03673,8.8,100000,500000,10000000,0,0,1100000,2000000,90200000,0,0
4496619,1.34254,1.34263,0.14693,-0.03673,8.8,100000,1000000,25000000,0,0,1100000,2000000,30200000,0,0
4496833,1.34254,1.34263,0.14693,-0.03673,8.8,100000,1000000,25000000,0,0,1100000,1000000,45000000,0,0
4497274,1.34254,1.34262,0.11755,-0.02939,8.7,100000,1000000,25000000,0,0,500000,100000,30000000,0,0
4497519,1.34254,1.34263,0.09404,-0.02351,8.8,100000,1000000,25000000,0,0,1100000,1000000,25000000,0,0
4497669,1.34254,1.34262,0.15360,0.05956,8.7,100000,1000000,25000000,0,0,500000,100000,10000000,0,0
4498300,1.34254,1.34263,0.21931,0.06571,8.8,100000,500000,10000000,0,0,1100000,1000000,85200000,0,0
4498513,1.34254,1.34262,0.27436,0.05505,8.8,100000,500000,10000000,0,0,500000,600000,20000000,0,0
4498682,1.34254,1.34263,0.31811,0.04375,8.8,100000,500000,10000000,0,0,1100000,1000000,85200000,0,0
4500325,1.34254,1.34262,0.31539,-0.00272,8.8,100000,1000000,25000000,0,0,500000,100000,10000000,0,0
4500675,1.34254,1.34263,0.25231,-0.06308,8.8,100000,1000000,25000000,0,0,600000,1500000,25000000,0,0
4500834,1.34255,1.34263,0.24832,-0.00399,8.8,100000,500000,10000000,0,0,600000,1500000,25000000,0,0
4501635,1.34255,1.34263,0.24832,-0.00399,8.8,100000,1000000,25000000,0,0,100000,1000000,25000000,0,0
4501907,1.34255,1.34264,0.29194,0.04362,8.8,100000,500000,10000000,0,0,1100000,1000000,85200000,0,0
4502649,1.34254,1.34263,0.28865,-0.00329,8.8,1100000,1000000,5000000,0,0,500000,600000,40000000,0,0
4503458,1.34254,1.34263,0.28865,-0.00329,8.8,600000,500000,25000000,0,0,600000,500000,45000000,0,0
4504795,1.34254,1.34263,0.28865,-0.00329,8.8,600000,500000,25000000,0,0,600000,1500000,25000000,0,0
4505564,1.34254,1.34262,0.26526,-0.02339,8.7,600000,750000,10000000,0,0,500000,100000,30000000,0,0
4505745,1.34253,1.34262,0.27683,0.01157,8.7,500000,600000,20000000,0,0,500000,600000,40000000,0,0
4506335,1.34254,1.34262,0.24859,-0.02824,8.7,100000,500000,10000000,0,0,1100000,2000000,30000000,0,0
4507978,1.34254,1.34262,0.24859,-0.02824,8.7,100000,500000,10000000,0,0,600000,500000,20000000,0,0
4509475,1.34254,1.34262,0.24859,-0.02824,8.7,100000,1000000,25000000,0,0,600000,500000,45000000,0,0
4510481,1.34254,1.34262,0.24859,-0.02824,8.7,100000,1000000,25000000,0,0,600000,500000,25000000,0,0
4511307,1.34254,1.34262,0.24859,-0.02824,8.7,100000,500000,10000000,0,0,1100000,1000000,5000000,0,0
4512697,1.34253,1.34262,0.21459,-0.03400,8.7,1100000,1000000,25000000,0,0,600000,500000,20000000,0,0
4513123,1.34254,1.34263,0.18641,-0.02818,8.8,1100000,1000000,5000000,0,0,600000,500000,25000000,0,0
4513931,1.34254,1.34263,0.18641,-0.02818,8.8,600000,500000,25000000,0,0,600000,1500000,25000000,0,0
4514293,1.34254,1.34264,0.23445,0.04804,8.8,600000,500000,25000000,0,0,1100000,1000000,65200000,0,0
4515252,1.34254,1.34263,0.18756,-0.04689,8.8,1100000,1000000,5000000,0,0,100000,1000000,25000000,0,0
4516108,1.34254,1.34263,0.20539,0.01783,8.8,600000,500000,25000000,0,0,600000,500000,20000000,0,0
4516520,1.34255,1.34264,0.32229,0.11690,8.8,500000,600000,20000000,0,0,600000,1500000,45000000,0,0
4517272,1.34255,1.34263,0.34308,0.02079,8.7,500000,600000,20000000,0,0,100000,500000,30000000,0,0
4518116,1.34255,1.34263,0.34308,0.02079,8.7,500000,100000,10000000,0,0,100000,1000000,25000000,0,0
4518919,1.34255,1.34263,0.34308,0.02079,8.7,500000,100000,10000000,0,0,100000,500000,10000000,0,0
4519282,1.34255,1.34264,0.32424,-0.01884,8.7,500000,600000,20000000,0,0,600000,500000,20000000,0,0
4520251,1.34255,1.34263,0.25939,-0.06485,8.7,500000,100000,10000000,0,0,100000,500000,30000000,0,0
4521171,1.34255,1.34263,0.25939,-0.06485,8.7,500000,600000,20000000,0,0,100000,500000,10000000,0,0
4521978,1.34255,1.34263,0.25939,-0.06485,8.7,500000,600000,20000000,0,0,100000,1000000,25000000,0,0
4522834,1.34255,1.34263,0.25939,-0.06485,8.7,500000,600000,20000000,0,0,100000,500000,10000000,0,0
4525086,1.34255,1.34263,0.25939,-0.06485,8.7,500000,100000,10000000,0,0,100000,1000000,25000000,0,0
4526329,1.34255,1.34263,0.25939,-0.06485,8.7,500000,600000,20000000,0,0,100000,500000,10000000,0,0
4527123,1.34255,1.34263,0.25939,-0.06485,8.7,500000,600000,20000000,0,0,100000,1000000,25000000,0,0
4527947,1.34255,1.34263,0.25939,-0.06485,8.7,500000,600000,20000000,0,0,100000,500000,10000000,0,0
4532869,1.34255,1.34263,0.25939,-0.06485,8.7,500000,100000,10000000,0,0,100000,500000,10000000,0,0
4534272,1.34255,1.34263,0.25939,-0.06485,8.7,500000,600000,20000000,0,0,100000,500000,10000000,0,0
4535867,1.34255,1.34263,0.25939,-0.06485,8.7,500000,100000,10000000,0,0,100000,500000,10000000,0,0
4537641,1.34255,1.34263,0.25939,-0.06485,8.7,500000,600000,20000000,0,0,100000,500000,10000000,0,0
4539318,1.34255,1.34263,0.25939,-0.06485,8.7,500000,100000,10000000,0,0,100000,500000,10000000,0,0
4540340,1.34255,1.34263,0.25939,-0.06485,8.7,500000,600000,20000000,0,0,100000,500000,10000000,0,0
4542546,1.34255,1.34264,0.21200,-0.04739,8.7,1100000,1000000,5000000,0,0,600000,500000,25000000,0,0
4543650,1.34256,1.34265,0.35076,0.13876,8.7,500000,600000,20000000,0,0,1100000,1000000,25000000,0,0
4544590,1.34256,1.34265,0.35076,0.13876,8.7,500000,600000,20000000,0,0,600000,500000,20000000,0,0
4545761,1.34256,1.34265,0.35076,0.13876,8.7,500000,600000,20000000,0,0,1100000,2000000,30200000,0,0
4546623,1.34256,1.34265,0.35076,0.13876,8.7,500000,600000,20000000,0,0,1100000,1000000,25200000,0,0
4547581,1.34256,1.34265,0.35076,0.13876,8.7,600000,500000,25000000,0,0,500000,600000,20000000,0,0
4547794,1.34255,1.34265,0.30476,-0.04600,8.7,1100000,1000000,5000000,0,0,600000,500000,40000000,0,0
4548175,1.34255,1.34263,0.31021,0.00545,8.7,500000,100000,10000000,0,0,100000,500000,35000000,0,0
4549456,1.34254,1.34263,0.32574,0.01554,8.7,600000,500000,45000000,0,0,100000,500000,20000000,0,0
4550656,1.34254,1.34263,0.32574,0.01554,8.7,600000,500000,45000000,0,0,100000,500000,10000000,0,0
4551680,1.34254,1.34263,0.32574,0.01554,8.7,600000,500000,45000000,0,0,100000,500000,55000000,0,0
4552469,1.34255,1.34263,0.29379,-0.03196,8.7,500000,600000,20000000,0,0,100000,500000,55000000,0,0
4552742,1.34254,1.34263,0.23503,-0.05876,8.7,600000,500000,5000000,0,0,500000,100000,30000000,0,0
4553232,1.34253,1.34263,0.21452,-0.02051,8.7,600000,500000,45000000,0,0,600000,2500000,90200000,0,0
4554575,1.34254,1.34263,0.24597,0.03145,8.7,500000,100000,10000000,0,0,600000,2500000,90200000,0,0
4554785,1.34253,1.34263,0.19677,-0.04919,8.8,600000,500000,45000000,0,0,600000,1000000,55000000,0,0
4555844,1.34253,1.34263,0.19677,-0.04919,8.8,600000,500000,45000000,0,0,600000,2500000,90200000,0,0
4556030,1.34254,1.34263,0.23780,0.04103,8.7,500000,100000,10000000,0,0,600000,2500000,90200000,0,0
4556826,1.34253,1.34263,0.19024,-0.04756,8.8,600000,500000,45000000,0,0,600000,2500000,90200000,0,0
4557983,1.34254,1.34263,0.23840,0.04816,8.8,600000,500000,5000000,0,0,600000,1500000,85200000,0,0
4558811,1.34254,1.34263,0.23840,0.04816,8.8,500000,600000,20000000,0,0,100000,500000,10000000,0,0
4559925,1.34254,1.34263,0.23840,0.04816,8.8,500000,600000,40000000,0,0,100000,500000,20000000,0,0
4561821,1.34254,1.34263,0.23840,0.04816,8.8,500000,600000,20000000,0,0,100000,500000,55000000,0,0
4565671,1.34254,1.34263,0.23840,0.04816,8.8,1000000,100000,20000000,0,0,100000,500000,55000000,0,0
4568819,1.34254,1.34263,0.23840,0.04816,8.8,500000,600000,20000000,0,0,100000,500000,55000000,0,0
4569078,1.34255,1.34263,0.19974,-0.03866,8.8,500000,600000,20000000,0,0,600000,500000,20000000,0,0
4569921,1.34255,1.34263,0.19974,-0.03866,8.8,500000,600000,20000000,0,0,100000,500000,10000000,0,0
4570979,1.34255,1.34263,0.19974,-0.03866,8.8,500000,100000,10000000,0,0,100000,500000,30000000,0,0
4573120,1.34255,1.34263,0.19974,-0.03866,8.8,500000,600000,20000000,0,0,100000,500000,10000000,0,0
4575790,1.34255,1.34263,0.15979,-0.03995,8.8,500000,600000,20000000,0,0,100000,500000,30000000,0,0
4576235,1.34255,1.34264,0.14180,-0.01799,8.8,500000,600000,20000000,0,0,600000,500000,40000000,0,0
4577226,1.34255,1.34263,0.11344,-0.02836,8.8,500000,600000,20000000,0,0,600000,500000,40000000,0,0
4577486,1.34253,1.34263,0.32979,0.21636,8.8,1100000,1000000,25200000,0,0,600000,2500000,30000000,0,0
4577825,1.34254,1.34263,0.38962,0.05983,8.8,500000,600000,20000000,0,0,600000,2500000,30000000,0,0
4578310,1.34253,1.34263,0.49586,0.10624,8.8,1100000,1000000,25200000,0,0,600000,2500000,30000000,0,0
4579918,1.34254,1.34263,0.45892,-0.03694,8.8,500000,600000,20000000,0,0,600000,2500000,30000000,0,0
4580882,1.34253,1.34263,0.36713,-0.09178,8.9,1100000,1000000,25200000,0,0,600000,2500000,30000000,0,0
4581705,1.34253,1.34263,0.36713,-0.09178,8.9,1100000,2000000,90200000,0,0,100000,1000000,45000000,0,0
4582574,1.34253,1.34263,0.36713,-0.09178,8.9,1100000,1000000,85200000,0,0,100000,1500000,35000000,0,0
4583137,1.34254,1.34263,0.33805,-0.02908,8.9,500000,600000,20000000,0,0,100000,1500000,35000000,0,0
4583311,1.34253,1.34263,0.27044,-0.06761,8.9,1100000,1000000,85200000,0,0,100000,2000000,25000000,0,0
4584152,1.34253,1.34263,0.27044,-0.06761,8.9,1100000,1000000,85200000,0,0,100000,1500000,35000000,0,0
4587046,1.34253,1.34263,0.27044,-0.06761,8.9,1100000,1000000,85200000,0,0,100000,500000,10000000,0,0
4587204,1.34253,1.34263,0.27044,-0.06761,8.9,600000,500000,45000000,0,0,600000,1500000,85200000,0,0
4587410,1.34252,1.34262,0.26509,-0.00536,8.9,500000,600000,40000000,0,0,600000,500000,20000000,0,0
4587622,1.34252,1.34261,0.28164,0.01656,8.9,500000,600000,40000000,0,0,100000,500000,35000000,0,0
4588302,1.34252,1.34262,0.26535,-0.01629,8.9,600000,500000,45000000,0,0,500000,100000,30000000,0,0
4588692,1.34253,1.34263,0.49266,0.22730,9.0,1100000,1000000,25000000,0,0,600000,1500000,45000000,0,0
4589340,1.34254,1.34263,0.68342,0.19076,9.0,100000,1000000,5000000,0,0,600000,1500000,45000000,0,0
4590505,1.34254,1.34263,0.68342,0.19076,9.0,100000,1000000,25000000,0,0,600000,1000000,55000000,0,0
4592771,1.34254,1.34263,0.68342,0.19076,9.0,100000,1000000,25000000,0,0,600000,1500000,45000000,0,0
4594701,1.34254,1.34263,0.68342,0.19076,9.0,100000,500000,10000000,0,0,600000,1500000,45000000,0,0
4595603,1.34254,1.34263,0.68342,0.19076,9.0,100000,1000000,45000000,0,0,600000,1500000,25200000,0,0
4596392,1.34254,1.34263,0.68342,0.19076,9.0,600000,500000,5000000,0,0,600000,1000000,55000000,0,0
4597209,1.34254,1.34263,0.68342,0.19076,9.0,600000,500000,25000000,0,0,600000,1500000,45000000,0,0
4597389,1.34255,1.34263,0.55916,-0.12426,9.0,500000,100000,10000000,0,0,600000,1500000,45000000,0,0
4597611,1.34254,1.34263,0.44733,-0.11183,9.0,600000,500000,25000000,0,0,600000,1500000,45000000,0,0
4597821,1.34255,1.34263,0.36965,-0.07768,9.0,500000,100000,10000000,0,0,600000,1500000,45000000,0,0
4598001,1.34254,1.34263,0.29572,-0.07393,9.0,600000,500000,25000000,0,0,600000,1500000,45000000,0,0
4598443,1.34255,1.34263,0.23658,-0.05914,9.0,500000,100000,10000000,0,0,600000,1500000,45000000,0,0
4600130,1.34254,1.34263,0.24833,0.01175,9.0,600000,500000,25000000,0,0,600000,1500000,45000000,0,0
4600833,1.34255,1.34263,0.19866,-0.04967,9.0,500000,100000,10000000,0,0,600000,1500000,45000000,0,0
4602260,1.34255,1.34263,0.19866,-0.04967,9.0,500000,100000,10000000,0,0,600000,500000,40000000,0,0
4602833,1.34254,1.34263,0.20893,0.01027,9.0,600000,500000,25000000,0,0,600000,500000,40000000,0,0
4603644,1.34255,1.34263,0.16714,-0.04179,9.0,500000,100000,10000000,0,0,600000,1500000,45000000,0,0
4603817,1.34254,1.34263,0.16723,0.00008,9.0,600000,500000,25000000,0,0,600000,1500000,45000000,0,0
4605294,1.34255,1.34263,0.20140,0.03417,9.0,500000,100000,10000000,0,0,600000,500000,40000000,0,0
4605813,1.34254,1.34263,0.16112,-0.04028,9.0,600000,500000,25000000,0,0,600000,500000,40000000,0,0
4606549,1.34255,1.34263,0.12889,-0.03222,9.0,500000,100000,10000000,0,0,600000,500000,40000000,0,0
4608800,1.34255,1.34263,0.12889,-0.03222,9.0,500000,100000,10000000,0,0,500000,600000,20000000,0,0
4609836,1.34255,1.34263,0.12889,-0.03222,9.0,500000,100000,10000000,0,0,600000,500000,20000000,0,0
4613839,1.34254,1.34263,0.11685,-0.01205,9.0,600000,500000,25000000,0,0,600000,500000,20000000,0,0
4615523,1.34254,1.34263,0.11685,-0.01205,9.0,599000,500000,25000000,0,0,600000,500000,20000000,0,0
4616299,1.34255,1.34263,0.13399,0.01715,8.9,500000,600000,20000000,0,0,100000,1000000,20000000,0,0
4616483,1.34254,1.34263,0.10720,-0.02680,8.9,600000,500000,25000000,0,0,600000,500000,40000000,0,0
4616795,1.34255,1.34263,0.11954,0.01234,8.9,500000,100000,10000000,0,0,600000,500000,40000000,0,0
4618368,1.34254,1.34263,0.15908,0.03954,8.9,600000,500000,45000000,0,0,500000,600000,20000000,0,0
4618628,1.34255,1.34263,0.12727,-0.03182,8.9,500000,100000,10000000,0,0,500000,600000,20000000,0,0
4618838,1.34255,1.34264,0.15074,0.02347,8.9,500000,600000,20000000,0,0,100000,1000000,20000000,0,0
4619134,1.34255,1.34263,0.12059,-0.03015,8.9,500000,600000,20000000,0,0,100000,500000,10000000,0,0
4619839,1.34256,1.34264,0.19637,0.07578,8.9,500000,600000,20000000,0,0,500000,1500000,50000000,0,0
4620079,1.34255,1.34263,0.23755,0.04118,8.9,500000,100000,10000000,0,0,600000,500000,20000000,0,0
4620606,1.34254,1.34263,0.25807,0.02052,8.8,600000,500000,45000000,0,0,600000,500000,40000000,0,0
4620822,1.34255,1.34263,0.20645,-0.05161,8.8,500000,100000,10000000,0,0,600000,500000,40000000,0,0
4622905,1.34254,1.34263,0.21317,0.00672,8.8,600000,500000,45000000,0,0,100000,1000000,45000000,0,0
4623732,1.34255,1.34263,0.17054,-0.04263,8.8,500000,100000,10000000,0,0,100000,1000000,20000000,0,0
4624900,1.34255,1.34263,0.17054,-0.04263,8.8,500000,100000,10000000,0,0,600000,500000,40000000,0,0
4625452,1.34253,1.34262,0.31075,0.14021,8.8,100000,500000,25000000,0,0,500000,100000,20000000,0,0
4625723,1.34255,1.34263,0.24860,-0.06215,8.8,500000,100000,10000000,0,0,100000,1500000,80200000,0,0
4626418,1.34254,1.34262,0.27328,0.02469,8.8,600000,750000,30000000,0,0,500000,100000,30000000,0,0
4626864,1.34254,1.34263,0.30611,0.03283,8.8,600000,500000,5000000,0,0,600000,500000,40000000,0,0
4627227,1.34255,1.34263,0.24489,-0.06122,8.7,500000,100000,10000000,0,0,600000,500000,40000000,0,0
4627818,1.34254,1.34263,0.26755,0.02265,8.7,600000,500000,5000000,0,0,600000,500000,40000000,0,0
4628481,1.34255,1.34263,0.21404,-0.05351,8.7,500000,100000,10000000,0,0,600000,500000,40000000,0,0
4628819,1.34254,1.34263,0.17123,-0.04281,8.7,600000,500000,5000000,0,0,600000,500000,40000000,0,0
4630533,1.34254,1.34263,0.17123,-0.04281,8.7,500000,100000,10000000,0,0,600000,500000,40000000,0,0
4630715,1.34255,1.34263,0.18973,0.01850,8.7,500000,100000,10000000,0,0,600000,500000,40000000,0,0
4630903,1.34254,1.34263,0.15178,-0.03795,8.7,500000,100000,10000000,0,0,600000,500000,20000000,0,0
4631610,1.34255,1.34263,0.15727,0.00549,8.7,500000,600000,20000000,0,0,600000,500000,40000000,0,0
4632644,1.34255,1.34263,0.15727,0.00549,8.7,500000,600000,40000000,0,0,100000,500000,10000000,0,0
4633416,1.34254,1.34263,0.18112,0.02386,8.7,600000,1000000,85200000,0,0,100000,1000000,25000000,0,0
4634527,1.34255,1.34263,0.23483,0.05370,8.7,500000,100000,10000000,0,0,600000,2500000,30000000,0,0
4635681,1.34255,1.34263,0.23483,0.05370,8.7,500000,600000,20000000,0,0,100000,500000,10000000,0,0
4635875,1.34256,1.34264,0.33700,0.10218,8.6,500000,100000,10000000,0,0,500000,1500000,50000000,0,0
4636306,1.34255,1.34263,0.26960,-0.06740,8.6,500000,500000,2000000,0,0,100000,1000000,20000000,0,0
4636484,1.34254,1.34263,0.26676,-0.00285,8.6,500000,600000,40000000,0,0,600000,2500000,30000000,0,0
