TimeMS,BestBid,BestAsk,Velocity,Acceleration,Spread,BidV1,BidV2,BidV3,BidV4,BidV5,AskV1,AskV2,AskV3,AskV4,AskV5
3848516,4638.11,4638.41,0.00000,0.00000,30.0,100,200,10000,0,0,100,200,10000,0,0
3848739,4637.91,4638.21,0.00000,0.00000,30.0,100,200,10000,0,0,100,200,10000,0,0
3848915,4637.90,4638.20,0.00000,0.00000,30.0,100,200,10000,0,0,100,200,10000,0,0
3849824,4637.92,4638.22,0.00000,0.00000,30.0,100,200,10000,0,0,100,200,10000,0,0
3850047,4637.94,4638.24,0.00000,0.00000,30.0,100,200,10000,0,0,100,200,10000,0,0
3850954,4638.05,4638.35,2.29479,2.29479,30.0,100,200,10000,0,0,100,200,10000,0,0
3851139,4637.94,4638.24,1.83583,-0.45896,30.0,100,200,10000,0,0,100,200,10000,0,0
3851471,4637.77,4638.07,3.86135,2.02551,30.0,100,200,10000,0,0,100,200,10000,0,0
3851691,4637.63,4637.93,6.86496,3.00361,30.0,100,200,10000,0,0,100,200,10000,0,0
3852411,4637.66,4637.96,9.90489,3.03993,30.0,100,200,10000,0,0,100,200,10000,0,0
3852581,4637.70,4638.00,9.18291,-0.72199,30.0,100,200,10000,0,0,100,200,10000,0,0
3853278,4637.79,4638.09,9.36144,0.17853,30.0,100,200,10000,0,0,100,200,10000,0,0
3853432,4637.65,4637.95,7.68542,-1.67602,30.0,100,200,10000,0,0,100,200,10000,0,0
3853814,4637.66,4637.96,6.79927,-0.88615,30.0,100,200,10000,0,0,100,200,10000,0,0
3854108,4637.69,4637.99,5.57057,-1.22871,30.0,100,200,10000,0,0,100,200,10000,0,0
3854586,4637.51,4637.81,6.87860,1.30803,30.0,100,200,10000,0,0,100,200,10000,0,0
3854768,4637.35,4637.65,9.98049,3.10189,30.0,100,200,10000,0,0,100,200,10000,0,0
3854944,4637.45,4637.75,11.68483,1.70434,30.0,100,200,10000,0,0,100,200,10000,0,0
3855139,4637.41,4637.71,14.79004,3.10521,30.0,100,200,10000,0,0,100,200,10000,0,0
3855957,4637.50,4637.80,12.82706,-1.96298,30.0,100,200,10000,0,0,100,200,10000,0,0
3856132,4637.68,4637.98,14.14350,1.31644,30.0,100,200,10000,0,0,100,200,10000,0,0
3856330,4637.69,4637.99,16.00885,1.86535,30.0,100,200,10000,0,0,100,200,10000,0,0
3856508,4637.79,4638.09,18.34241,2.33355,30.0,100,200,10000,0,0,100,200,10000,0,0
3856668,4637.97,4638.27,21.98463,3.64222,30.0,100,200,10000,0,0,100,200,10000,0,0
3857003,4638.05,4638.35,28.05393,6.06930,30.0,100,200,10000,0,0,100,200,10000,0,0
3857660,4638.09,4638.39,27.64696,-0.40697,30.0,100,200,10000,0,0,100,200,10000,0,0
3858548,4638.13,4638.43,23.15316,-4.49379,30.0,100,200,10000,0,0,100,200,10000,0,0
3858868,4638.14,4638.44,19.35241,-3.80076,30.0,100,200,10000,0,0,100,200,10000,0,0
3859121,4638.10,4638.40,15.61910,-3.73331,30.0,100,200,10000,0,0,100,200,10000,0,0
3859634,4638.07,4638.37,13.60331,-2.01579,30.0,100,200,10000,0,0,100,200,10000,0,0
3859953,4638.02,4638.32,13.09667,-0.50664,30.0,100,200,10000,0,0,100,200,10000,0,0
3860103,4638.02,4638.32,13.09667,-0.50664,30.0,100,200,10000,0,0,100,200,10000,0,0
3860352,4637.98,4638.28,12.42697,-0.66970,30.0,100,200,10000,0,0,100,200,10000,0,0
3860671,4637.98,4638.24,12.06104,-0.36593,29.9,100,200,10000,0,0,100,200,10000,0,0
3860870,4637.72,4638.02,15.28944,3.22840,29.9,100,200,10000,0,0,100,200,10000,0,0
3861088,4637.80,4638.10,16.09799,0.80854,29.9,100,200,10000,0,0,100,200,10000,0,0
3861944,4637.87,4638.17,15.68213,-0.41586,29.9,100,200,10000,0,0,100,200,10000,0,0
3862174,4637.86,4638.16,13.65271,-2.02941,29.9,100,200,10000,0,0,100,200,10000,0,0
3862849,4637.83,4638.13,11.26250,-2.39021,29.9,100,200,10000,0,0,100,200,10000,0,0
3863614,4637.92,4638.22,9.84333,-1.41917,29.9,100,200,10000,0,0,100,200,10000,0,0
3864419,4637.96,4638.26,9.53283,-0.31050,29.9,100,200,10000,0,0,100,200,10000,0,0
3864596,4637.99,4638.29,9.46007,-0.07276,29.9,100,200,10000,0,0,100,200,10000,0,0
3865173,4637.88,4638.18,8.07957,-1.38051,29.9,100,200,10000,0,0,100,200,10000,0,0
3865651,4637.80,4638.10,10.06897,1.98940,29.9,100,200,10000,0,0,100,200,10000,0,0
3865836,4637.46,4637.74,16.76485,6.69588,29.9,100,200,10000,0,0,100,200,10000,0,0
3866012,4637.10,4637.40,26.00028,9.23543,29.9,100,200,10000,0,0,100,200,10000,0,0
3866173,4637.14,4637.44,31.59388,5.59359,29.9,100,200,10000,0,0,100,200,10000,0,0
3866610,4637.02,4637.32,37.30307,5.70920,29.9,100,200,10000,0,0,100,200,10000,0,0
3866836,4636.93,4637.23,44.61326,7.31018,29.9,100,200,10000,0,0,100,200,10000,0,0
3867011,4636.88,4637.18,40.09061,-4.52265,29.9,100,200,10000,0,0,100,200,10000,0,0
3867295,4636.98,4637.28,34.92453,-5.16607,29.9,100,200,10000,0,0,100,200,10000,0,0
3867444,4637.02,4637.32,29.82642,-5.09811,29.9,100,200,10000,0,0,100,200,10000,0,0
3867654,4637.03,4637.33,24.05381,-5.77261,29.9,100,200,10000,0,0,100,200,10000,0,0
3868023,4637.03,4637.33,24.05381,-5.77261,29.9,100,200,10000,0,0,100,200,10000,0,0
3868241,4637.05,4637.35,22.00953,-2.04429,29.9,100,200,10000,0,0,100,200,10000,0,0
3868492,4637.06,4637.36,18.37244,-3.63709,29.9,100,200,10000,0,0,100,200,10000,0,0
3868713,4637.10,4637.40,16.01127,-2.36117,29.9,100,200,10000,0,0,100,200,10000,0,0
3869192,4637.01,4637.31,13.06775,-2.94352,29.9,100,200,10000,0,0,100,200,10000,0,0
3869781,4637.05,4637.35,10.45420,-2.61355,29.9,100,200,10000,0,0,100,200,10000,0,0
3869951,4637.08,4637.38,8.68620,-1.76800,29.9,100,200,10000,0,0,100,200,10000,0,0
3870451,4637.12,4637.42,8.25737,-0.42883,29.9,100,200,10000,0,0,100,200,10000,0,0
3870712,4637.08,4637.38,7.05669,-1.20069,29.9,100,200,10000,0,0,100,200,10000,0,0
3870879,4637.05,4637.35,5.64535,-1.41134,29.9,100,200,10000,0,0,100,200,10000,0,0
3871444,4637.04,4637.34,5.05140,-0.59395,29.9,100,200,10000,0,0,100,200,10000,0,0
3871850,4636.94,4637.24,6.49941,1.44802,29.9,100,200,10000,0,0,100,200,10000,0,0
3872164,4636.94,4637.24,6.49941,1.44802,29.9,100,200,10000,0,0,100,200,10000,0,0
3872379,4636.77,4637.07,8.94035,2.44093,29.9,100,200,10000,0,0,100,200,10000,0,0
3872628,4636.69,4636.99,13.05447,4.11412,29.9,100,200,10000,0,0,100,200,10000,0,0
3872876,4636.59,4636.89,17.28620,4.23173,29.9,100,200,10000,0,0,100,200,10000,0,0
3873047,4636.65,4636.95,18.66632,1.38013,29.9,100,200,10000,0,0,100,200,10000,0,0
3873222,4636.65,4636.95,18.66632,1.38013,29.9,100,200,10000,0,0,100,200,10000,0,0
3873396,4636.68,4636.98,16.70297,-1.96335,29.9,100,200,10000,0,0,100,200,10000,0,0
3873626,4636.67,4636.97,14.95854,-1.74442,29.9,100,200,10000,0,0,100,200,10000,0,0
3873809,4636.68,4636.98,12.13690,-2.82164,29.9,100,200,10000,0,0,100,200,10000,0,0
3873985,4636.63,4636.93,10.42959,-1.70731,29.9,100,200,10000,0,0,100,200,10000,0,0
3874962,4636.63,4636.93,10.42959,-1.70731,29.9,100,200,10000,0,0,100,200,10000,0,0
3875241,4636.65,4636.95,8.66164,-1.76795,29.9,100,200,10000,0,0,100,200,10000,0,0
3875411,4636.65,4636.95,8.66164,-1.76795,29.9,100,200,10000,0,0,100,200,10000,0,0
3875607,4636.77,4637.07,8.65558,-0.00606,29.9,100,200,10000,0,0,100,200,10000,0,0
3875951,4636.73,4637.03,7.94175,-0.71382,29.9,100,200,10000,0,0,100,200,10000,0,0
3876127,4636.80,4637.10,7.94071,-0.00105,29.9,100,200,10000,0,0,100,200,10000,0,0
3876352,4636.76,4637.06,8.33633,0.39563,29.9,100,200,10000,0,0,100,200,10000,0,0
3876571,4636.79,4637.09,8.77750,0.44117,29.9,100,200,10000,0,0,100,200,10000,0,0
3876764,4636.81,4637.11,7.73122,-1.04628,29.9,100,200,10000,0,0,100,200,10000,0,0
3876901,4636.83,4637.13,7.11449,-0.61673,29.9,100,200,10000,0,0,100,200,10000,0,0
3877150,4636.84,4637.14,6.47208,-0.64241,29.9,100,200,10000,0,0,100,200,10000,0,0
3878107,4636.75,4637.05,6.50326,0.03118,29.9,100,200,10000,0,0,100,200,10000,0,0
3879110,4636.58,4636.88,8.58233,2.07907,29.9,100,200,10000,0,0,100,200,10000,0,0
3879436,4636.71,4637.01,7.46782,-1.11451,30.0,100,200,10000,0,0,100,200,10000,0,0
3879920,4636.69,4636.99,6.63578,-0.83204,30.0,100,200,10000,0,0,100,200,10000,0,0
3880671,4636.73,4637.03,5.63199,-1.00379,30.0,100,200,10000,0,0,100,200,10000,0,0
3880920,4636.68,4636.98,4.70559,-0.92640,30.0,100,200,10000,0,0,100,200,10000,0,0
3881188,4636.66,4636.96,4.23654,-0.46905,30.0,100,200,10000,0,0,100,200,10000,0,0
3881691,4636.69,4636.99,3.60769,0.07751,30.0,100,200,10000,0,0,100,200,10000,0,0
3882652,4636.80,4637.10,4.71402,1.10634,30.0,100,200,10000,0,0,100,200,10000,0,0
3883797,4636.82,4637.12,4.12118,-0.59285,30.0,100,200,10000,0,0,100,200,10000,0,0
3884192,4636.86,4637.16,4.07616,-0.04501,30.0,100,200,10000,0,0,100,200,10000,0,0
3884392,4636.81,4637.11,3.37581,-0.70036,30.0,100,200,10000,0,0,100,200,10000,0,0
3885236,4636.81,4637.11,3.37581,-0.70036,30.0,100,200,10000,0,0,100,200,10000,0,0
3885394,4636.75,4637.05,3.89825,0.52244,30.0,100,200,10000,0,0,100,200,10000,0,0
3885658,4636.64,4636.94,5.79999,1.90174,30.0,100,200,10000,0,0,100,200,10000,0,0
3886111,4636.50,4636.80,8.25094,2.45095,30.0,100,200,10000,0,0,100,200,10000,0,0
3886312,4636.54,4636.84,9.41472,1.16378,30.0,100,200,10000,0,0,100,200,10000,0,0
3886480,4636.58,4636.88,10.66831,1.25359,30.0,100,200,10000,0,0,100,200,10000,0,0
3886778,4636.55,4636.85,10.14466,-0.52364,30.0,100,200,10000,0,0,100,200,10000,0,0
3886992,4636.59,4636.89,8.86704,-1.27762,30.0,100,200,10000,0,0,100,200,10000,0,0
3887300,4636.58,4636.88,8.43704,-0.43000,30.0,100,200,10000,0,0,100,200,10000,0,0
3887630,4636.54,4636.84,7.44348,-0.99357,30.0,100,200,10000,0,0,100,200,10000,0,0
3888016,4636.56,4636.86,6.54015,-0.90333,30.0,100,200,10000,0,0,100,200,10000,0,0
3888371,4636.60,4636.90,5.60525,-0.93490,30.0,100,200,10000,0,0,100,200,10000,0,0
3888872,4636.63,4636.93,5.93699,0.33173,30.0,100,200,10000,0,0,100,200,10000,0,0
3889280,4636.57,4636.87,4.90807,-1.02892,30.0,100,200,10000,0,0,100,200,10000,0,0
3889499,4636.68,4636.98,5.34489,0.43683,30.0,100,200,10000,0,0,100,200,10000,0,0
3889731,4636.63,4636.93,4.71807,-0.62683,30.0,100,200,10000,0,0,100,200,10000,0,0
3889952,4636.66,4636.96,4.32950,-0.38857,30.0,100,200,10000,0,0,100,200,10000,0,0
3890107,4636.66,4636.96,4.32950,-0.38857,30.0,100,200,10000,0,0,100,200,10000,0,0
3890352,4636.70,4637.00,5.88445,1.55496,30.0,100,200,10000,0,0,100,200,10000,0,0
3890508,4636.72,4637.02,5.50121,-0.38324,30.0,100,200,10000,0,0,100,200,10000,0,0
3890808,4636.70,4637.00,5.69607,0.19485,30.0,100,200,10000,0,0,100,200,10000,0,0
3890974,4636.80,4637.10,7.29926,1.60320,30.0,100,200,10000,0,0,100,200,10000,0,0
3891232,4636.77,4637.07,7.55950,0.26024,30.0,100,200,10000,0,0,100,200,10000,0,0
3891472,4636.78,4637.08,7.47745,-0.08205,30.0,100,200,10000,0,0,100,200,10000,0,0
3891764,4636.76,4637.06,6.61992,-0.85753,30.0,100,200,10000,0,0,100,200,10000,0,0
3891974,4636.79,4637.09,5.49594,-1.12398,30.0,100,200,10000,0,0,100,200,10000,0,0
3892191,4636.81,4637.11,4.56122,-0.93471,30.0,100,200,10000,0,0,100,200,10000,0,0
3892439,4636.75,4637.05,3.98010,-0.58112,30.0,100,200,10000,0,0,100,200,10000,0,0
3892597,4636.77,4637.07,3.36170,-0.61840,30.0,100,200,10000,0,0,100,200,10000,0,0
3893601,4636.75,4637.05,3.08817,-0.27354,30.0,100,200,10000,0,0,100,200,10000,0,0
3894133,4636.77,4637.07,2.47053,-0.61763,30.0,100,200,10000,0,0,100,200,10000,0,0
3894504,4636.75,4637.05,2.18618,-0.28435,30.0,100,200,10000,0,0,100,200,10000,0,0
3894666,4636.76,4637.06,1.93709,-0.24909,30.0,100,200,10000,0,0,100,200,10000,0,0
3894891,4636.74,4637.04,1.70471,-0.23238,30.0,100,200,10000,0,0,100,200,10000,0,0
3895115,4636.73,4637.03,1.62832,-0.07639,30.0,100,200,10000,0,0,100,200,10000,0,0
3895478,4636.67,4636.97,2.78633,1.15802,30.0,100,200,10000,0,0,100,200,10000,0,0
3895660,4636.58,4636.88,5.17534,2.38901,30.0,100,200,10000,0,0,100,200,10000,0,0
3895901,4636.64,4636.94,6.12047,0.94513,30.0,100,200,10000,0,0,100,200,10000,0,0
3896117,4636.54,4636.84,8.68879,2.56832,30.0,100,200,10000,0,0,100,200,10000,0,0
3896281,4636.63,4636.93,8.65898,-0.02982,30.0,100,200,10000,0,0,100,200,10000,0,0
3896502,4636.63,4636.93,8.65898,-0.02982,30.0,100,200,10000,0,0,100,200,10000,0,0
3896707,4636.62,4636.92,7.69127,-0.96771,30.0,100,200,10000,0,0,100,200,10000,0,0
3896953,4636.56,4636.86,7.66960,-0.02167,30.0,100,200,10000,0,0,100,200,10000,0,0
3897149,4636.53,4636.83,6.32873,-1.34087,30.0,100,200,10000,0,0,100,200,10000,0,0
3897889,4636.46,4636.76,7.76341,1.43468,30.0,100,200,10000,0,0,100,200,10000,0,0
3898144,4636.44,4636.74,8.23433,0.47093,30.0,100,200,10000,0,0,100,200,10000,0,0
3898440,4636.49,4636.75,7.51842,-0.71591,29.9,100,200,10000,0,0,100,200,10000,0,0
3898650,4636.11,4636.41,11.61101,4.09258,29.9,100,200,10000,0,0,100,200,10000,0,0
3898864,4636.11,4636.41,11.61101,4.09258,29.9,100,200,10000,0,0,100,200,10000,0,0
3899237,4636.20,4636.50,13.67237,2.06136,29.9,100,200,10000,0,0,100,200,10000,0,0
3899437,4636.23,4636.53,14.17863,0.50627,29.9,100,200,10000,0,0,100,200,10000,0,0
3900147,4636.18,4636.48,12.28062,-1.89802,29.9,100,200,10000,0,0,100,200,10000,0,0
3900459,4636.17,4636.47,10.99866,-1.28196,29.9,100,200,10000,0,0,100,200,10000,0,0
3900873,4636.07,4636.37,11.02424,0.02558,29.9,100,200,10000,0,0,100,200,10000,0,0
3901333,4636.06,4636.36,10.83790,-0.18635,29.9,100,200,10000,0,0,100,200,10000,0,0
3901485,4636.07,4636.37,10.62154,-0.21636,29.9,100,200,10000,0,0,100,200,10000,0,0
3901801,4636.09,4636.39,9.69126,-0.93028,29.9,100,200,10000,0,0,100,200,10000,0,0
3902097,4636.12,4636.42,8.57538,-1.11588,29.9,100,200,10000,0,0,100,200,10000,0,0
3902730,4636.18,4636.48,8.62171,0.04633,29.9,100,200,10000,0,0,100,200,10000,0,0
3902891,4636.25,4636.55,9.81708,1.19537,29.9,100,200,10000,0,0,100,200,10000,0,0
3903071,4636.21,4636.51,9.74194,-0.07514,29.9,100,200,10000,0,0,100,200,10000,0,0
3903314,4636.10,4636.40,8.12035,-1.62159,29.9,100,200,10000,0,0,100,200,10000,0,0
3903471,4636.46,4636.76,11.42739,3.30704,29.9,100,200,10000,0,0,100,200,10000,0,0
3903684,4636.44,4636.74,13.16454,1.73715,29.9,100,200,10000,0,0,100,200,10000,0,0
3903965,4636.42,4636.72,13.71217,0.54764,29.9,100,200,10000,0,0,100,200,10000,0,0
3904493,4636.49,4636.79,11.64801,-2.17887,29.9,100,200,10000,0,0,100,200,10000,0,0
3905265,4636.49,4636.79,11.64801,-2.17887,29.9,100,200,10000,0,0,100,200,10000,0,0
3905494,4636.44,4636.74,10.39616,-1.25185,29.9,100,200,10000,0,0,100,200,10000,0,0
3905772,4636.47,4636.77,8.63066,-1.76551,29.9,100,200,10000,0,0,100,200,10000,0,0
3906037,4636.54,4636.84,7.55136,-1.07930,29.9,100,200,10000,0,0,100,200,10000,0,0
3907027,4636.66,4636.96,9.06897,1.51762,29.9,100,200,10000,0,0,100,200,10000,0,0
3907451,4636.68,4636.98,9.23959,0.17061,29.9,100,200,10000,0,0,100,200,10000,0,0
3907955,4636.69,4636.99,8.95989,-0.27970,29.9,100,200,10000,0,0,100,200,10000,0,0
3908336,4636.69,4636.99,8.95989,-0.27970,29.9,100,200,10000,0,0,100,200,10000,0,0
3908500,4636.69,4636.99,8.95989,-0.27970,29.9,100,200,10000,0,0,100,200,10000,0,0
3908742,4636.67,4636.97,7.32259,-1.63730,29.9,100,200,10000,0,0,100,200,10000,0,0
3908905,4636.58,4636.88,7.23264,-0.08995,29.9,100,200,10000,0,0,100,200,10000,0,0
3909065,4636.54,4636.84,8.48153,1.24889,29.9,100,200,10000,0,0,100,200,10000,0,0
3910172,4636.58,4636.88,7.50660,-0.97494,29.9,100,200,10000,0,0,100,200,10000,0,0
3910517,4636.60,4636.90,6.83115,-0.67544,29.9,100,200,10000,0,0,100,200,10000,0,0
3910893,4636.67,4636.97,6.88802,0.05687,29.9,100,200,10000,0,0,100,200,10000,0,0
3911805,4636.69,4636.99,6.91338,0.02536,29.9,100,200,10000,0,0,100,200,10000,0,0
3912297,4636.63,4636.93,6.10050,-0.81288,29.9,100,200,10000,0,0,100,200,10000,0,0
3913972,4636.68,4636.98,5.47600,-0.62451,29.9,100,200,10000,0,0,100,200,10000,0,0
3914805,4636.68,4636.98,5.47600,-0.62451,29.9,100,200,10000,0,0,100,200,10000,0,0
3915193,4636.71,4637.01,4.87462,-0.60137,29.9,100,200,10000,0,0,100,200,10000,0,0
3915433,4636.81,4637.11,5.68664,0.81202,29.9,100,200,10000,0,0,100,200,10000,0,0
3915607,4636.78,4637.08,5.77781,0.09117,29.9,100,200,10000,0,0,100,200,10000,0,0
3915801,4636.83,4637.13,6.27332,0.49551,29.9,100,200,10000,0,0,100,200,10000,0,0
3915965,4636.83,4637.13,6.27332,0.49551,29.9,100,200,10000,0,0,100,200,10000,0,0
3916759,4636.84,4637.14,6.05493,-0.21840,29.9,100,200,10000,0,0,100,200,10000,0,0
3917303,4636.83,4637.13,4.84394,-1.21099,29.9,100,200,10000,0,0,100,200,10000,0,0
3917492,4636.86,4637.16,4.22810,-0.61585,29.9,100,200,10000,0,0,100,200,10000,0,0
3918510,4636.86,4637.16,4.22810,-0.61585,29.9,100,200,10000,0,0,100,200,10000,0,0
3918674,4636.24,4636.54,13.89095,9.66286,29.9,100,200,10000,0,0,100,200,10000,0,0
3918835,4635.99,4636.29,24.08815,10.19720,29.9,100,200,10000,0,0,100,200,10000,0,0
3919038,4635.98,4636.28,30.66211,6.57396,29.9,100,200,10000,0,0,100,200,10000,0,0
3919910,4636.01,4636.31,24.90109,-5.76102,29.9,100,200,10000,0,0,100,200,10000,0,0
3921138,4636.03,4636.33,16.66750,-3.75938,29.9,100,200,10000,0,0,100,200,10000,0,0
3921292,4636.13,4636.43,15.07062,-1.59689,29.9,100,200,10000,0,0,100,200,10000,0,0
3921460,4636.14,4636.40,13.47768,-1.59293,29.8,100,200,10000,0,0,100,200,10000,0,0
3922369,4636.02,4636.32,12.82675,-0.65093,29.9,100,200,10000,0,0,100,200,10000,0,0
3922684,4636.04,4636.34,11.56753,-1.25923,29.9,100,200,10000,0,0,100,200,10000,0,0
3923485,4636.04,4636.34,11.56753,-1.25923,29.9,100,200,10000,0,0,100,200,10000,0,0
3924473,4636.04,4636.34,11.56753,-1.25923,29.9,100,200,10000,0,0,100,200,10000,0,0
3924725,4636.05,4636.35,9.35201,-2.21551,29.9,100,200,10000,0,0,100,200,10000,0,0
3925353,4636.08,4636.38,7.78135,-1.57066,29.9,100,200,10000,0,0,100,200,10000,0,0
3925581,4636.01,4636.31,6.43240,-1.34894,29.9,100,200,10000,0,0,100,200,10000,0,0
3926178,4636.00,4636.30,5.83653,-0.59587,29.9,100,200,10000,0,0,100,200,10000,0,0
3926382,4636.17,4636.47,6.42020,0.58367,29.9,100,200,10000,0,0,100,200,10000,0,0
3926773,4636.19,4636.49,8.15883,1.73863,29.9,100,200,10000,0,0,100,200,10000,0,0
3926993,4636.03,4636.33,6.81015,-1.34868,29.9,100,200,10000,0,0,100,200,10000,0,0
3927160,4636.17,4636.47,7.47343,0.66329,29.9,100,200,10000,0,0,100,200,10000,0,0
3927413,4636.19,4636.49,6.36710,-1.10634,29.9,100,200,10000,0,0,100,200,10000,0,0
3927755,4636.38,4636.68,8.14157,1.77448,29.9,100,200,10000,0,0,100,200,10000,0,0
3928544,4636.34,4636.64,9.16110,1.01952,29.9,100,200,10000,0,0,100,200,10000,0,0
3928823,4636.30,4636.60,8.83689,-0.32421,29.9,100,200,10000,0,0,100,200,10000,0,0
3929014,4636.29,4636.59,8.50492,-0.33197,29.9,100,200,10000,0,0,100,200,10000,0,0
3929270,4636.38,4636.68,6.80393,-1.70098,29.9,100,200,10000,0,0,100,200,10000,0,0
3929538,4636.29,4636.59,6.45780,-0.34613,29.9,100,200,10000,0,0,100,200,10000,0,0
3930035,4636.31,4636.61,5.55917,-0.89863,29.9,100,200,10000,0,0,100,200,10000,0,0
3930209,4636.28,4636.58,4.61484,-0.94433,29.9,100,200,10000,0,0,100,200,10000,0,0
3930482,4636.37,4636.67,3.85716,-0.75768,29.9,100,200,10000,0,0,100,200,10000,0,0
3930640,4636.36,4636.66,4.34927,0.49211,29.9,100,200,10000,0,0,100,200,10000,0,0
3930950,4636.33,4636.63,4.04319,-0.30608,29.9,100,200,10000,0,0,100,200,10000,0,0
3931172,4636.37,4636.67,4.28626,0.24307,29.9,100,200,10000,0,0,100,200,10000,0,0
3931379,4636.31,4636.61,3.94095,-0.34531,29.9,100,200,10000,0,0,100,200,10000,0,0
3932061,4636.35,4636.65,3.51377,-0.42718,29.9,100,200,10000,0,0,100,200,10000,0,0
3932744,4636.36,4636.66,3.54416,0.03038,29.9,100,200,10000,0,0,100,200,10000,0,0
3932958,4636.58,4636.88,6.25521,2.71105,29.9,100,200,10000,0,0,100,200,10000,0,0
3933509,4636.53,4636.83,7.49036,1.23515,29.9,100,200,10000,0,0,100,200,10000,0,0
3933867,4636.60,4636.90,10.27418,2.78382,29.9,100,200,10000,0,0,100,200,10000,0,0
3934112,4636.63,4636.93,9.08664,-1.18753,29.9,100,200,10000,0,0,100,200,10000,0,0
3934301,4636.68,4636.98,8.75852,-0.32813,29.9,100,200,10000,0,0,100,200,10000,0,0
3934481,4636.68,4636.98,8.75852,-0.32813,29.9,100,200,10000,0,0,100,200,10000,0,0
3934947,4636.67,4636.97,8.29952,-0.45900,29.9,100,200,10000,0,0,100,200,10000,0,0
3935101,4636.65,4636.95,7.44933,-0.85019,29.9,100,200,10000,0,0,100,200,10000,0,0
3935618,4636.95,4637.25,10.04728,2.59795,29.9,100,200,10000,0,0,100,200,10000,0,0
3935820,4636.86,4637.16,10.41406,0.36678,29.9,100,200,10000,0,0,100,200,10000,0,0
3936018,4636.84,4637.14,11.50585,1.09179,29.9,100,200,10000,0,0,100,200,10000,0,0
3936649,4636.88,4637.18,10.56920,-0.93665,29.9,100,200,10000,0,0,100,200,10000,0,0
3936837,4636.89,4637.19,9.04475,-1.52445,29.9,100,200,10000,0,0,100,200,10000,0,0
3937017,4637.03,4637.33,10.06678,1.02202,29.9,100,200,10000,0,0,100,200,10000,0,0
3937241,4637.04,4637.34,11.32407,1.25729,29.9,100,200,10000,0,0,100,200,10000,0,0
3937463,4637.08,4637.38,12.38105,1.05699,29.9,100,200,10000,0,0,100,200,10000,0,0
3937633,4636.99,4637.29,11.76243,-0.61863,29.9,100,200,10000,0,0,100,200,10000,0,0
3938579,4636.88,4637.18,12.99417,1.23174,29.9,100,200,10000,0,0,100,200,10000,0,0
3938748,4636.88,4637.18,12.99417,1.23174,29.9,100,200,10000,0,0,100,200,10000,0,0
3938933,4636.89,4637.19,11.93617,-1.05800,29.9,100,200,10000,0,0,100,200,10000,0,0
3939375,4636.92,4637.22,10.35215,-1.58402,29.9,100,200,10000,0,0,100,200,10000,0,0
3940260,4637.02,4637.32,10.23808,-0.11407,29.9,100,200,10000,0,0,100,200,10000,0,0
3940752,4637.06,4637.36,10.22092,-0.01716,29.9,100,200,10000,0,0,100,200,10000,0,0
3941029,4637.02,4637.32,9.38666,-0.83426,29.9,100,200,10000,0,0,100,200,10000,0,0
3942495,4636.99,4637.29,7.91860,-1.46805,29.9,100,200,10000,0,0,100,200,10000,0,0
3942655,4637.06,4637.36,6.82749,-1.09111,30.0,100,200,10000,0,0,100,200,10000,0,0
3942976,4637.19,4637.49,7.20558,0.37809,30.0,100,200,10000,0,0,100,200,10000,0,0
3943318,4637.27,4637.57,7.94978,0.74420,30.0,100,200,10000,0,0,100,200,10000,0,0
3943494,4637.48,4637.78,10.09208,2.14230,30.0,100,200,10000,0,0,100,200,10000,0,0
3943691,4637.33,4637.63,13.27097,3.17889,30.0,100,200,10000,0,0,100,200,10000,0,0
3944081,4637.41,4637.71,14.61677,1.34581,30.0,100,200,10000,0,0,100,200,10000,0,0
3944234,4637.37,4637.67,14.56423,-0.05254,30.0,100,200,10000,0,0,100,200,10000,0,0
3944717,4637.37,4637.67,14.56423,-0.05254,30.0,100,200,10000,0,0,100,200,10000,0,0
3944953,4637.32,4637.62,11.80999,-2.75424,30.0,100,200,10000,0,0,100,200,10000,0,0
3945751,4637.28,4637.58,10.63298,-1.17701,30.0,100,200,10000,0,0,100,200,10000,0,0
3945967,4637.32,4637.62,8.50639,-2.12660,30.0,100,200,10000,0,0,100,200,10000,0,0
3946621,4637.27,4637.57,7.40499,-1.10140,30.0,100,200,10000,0,0,100,200,10000,0,0
3946912,4637.23,4637.53,6.78755,-0.61744,30.0,100,200,10000,0,0,100,200,10000,0,0
3947474,4637.19,4637.49,7.15761,0.37007,30.0,100,200,10000,0,0,100,200,10000,0,0
3947885,4637.21,4637.51,6.67847,-0.47914,30.0,100,200,10000,0,0,100,200,10000,0,0
3948115,4637.21,4637.51,6.67847,-0.47914,30.0,100,200,10000,0,0,100,200,10000,0,0
3948441,4637.32,4637.62,6.51771,-0.16076,30.0,100,200,10000,0,0,100,200,10000,0,0
3949098,4637.36,4637.66,7.69556,1.17785,30.0,100,200,10000,0,0,100,200,10000,0,0
3950074,4637.51,4637.81,8.49060,0.79504,30.0,100,200,10000,0,0,100,200,10000,0,0
3950594,4637.62,4637.92,10.24534,1.75474,30.0,100,200,10000,0,0,100,200,10000,0,0
3951094,4637.74,4638.04,12.69725,2.45191,30.0,100,200,10000,0,0,100,200,10000,0,0
3951257,4637.67,4637.97,12.85367,0.15642,30.0,100,200,10000,0,0,100,200,10000,0,0
3951458,4637.73,4638.03,13.45525,0.60158,30.0,100,200,10000,0,0,100,200,10000,0,0
3952109,4637.75,4638.05,10.96047,-2.49478,30.0,100,200,10000,0,0,100,200,10000,0,0
3952319,4637.70,4638.00,9.33710,-1.62337,30.0,100,200,10000,0,0,100,200,10000,0,0
3952491,4637.80,4638.10,8.82233,-0.51476,30.0,100,200,10000,0,0,100,200,10000,0,0
3952666,4637.75,4638.05,7.38954,-1.43279,30.0,100,200,10000,0,0,100,200,10000,0,0
3953052,4637.69,4637.99,6.41320,-0.97634,30.0,100,200,10000,0,0,100,200,10000,0,0
3953352,4637.69,4637.99,6.41320,-0.97634,30.0,100,200,10000,0,0,100,200,10000,0,0
3953710,4637.74,4638.00,5.70308,-0.71012,29.9,100,200,10000,0,0,100,200,10000,0,0
3953933,4637.72,4638.02,5.03491,-0.66818,29.9,100,200,10000,0,0,100,200,10000,0,0
3954131,4637.74,4638.04,4.95471,-0.08020,29.9,100,200,10000,0,0,100,200,10000,0,0
3954308,4637.76,4638.06,5.07842,0.12371,29.9,100,200,10000,0,0,100,200,10000,0,0
3954557,4637.77,4638.07,5.12869,0.05027,29.9,100,200,10000,0,0,100,200,10000,0,0
3954712,4637.74,4638.04,4.50295,-0.62574,29.9,100,200,10000,0,0,100,200,10000,0,0
3954997,4637.77,4638.07,4.54133,0.03838,29.9,100,200,10000,0,0,100,200,10000,0,0
3955241,4637.79,4638.09,4.53073,-0.01060,29.9,100,200,10000,0,0,100,200,10000,0,0
3955681,4637.73,4638.03,4.33443,-0.19630,29.9,100,200,10000,0,0,100,200,10000,0,0
3955835,4637.74,4638.04,3.46755,-0.86689,29.9,100,200,10000,0,0,100,200,10000,0,0
3955993,4637.72,4638.02,3.08605,-0.38150,29.9,100,200,10000,0,0,100,200,10000,0,0
3956169,4637.71,4638.01,3.49099,0.40494,29.9,100,200,10000,0,0,100,200,10000,0,0
3956613,4637.79,4638.09,2.79279,-0.69820,29.9,100,200,10000,0,0,100,200,10000,0,0
3956653,4637.72,4638.02,3.23710,0.44431,29.9,100,200,10000,0,0,100,200,10000,0,0
3957081,4637.74,4638.04,2.58968,-0.64742,29.9,100,200,10000,0,0,100,200,10000,0,0
3957763,4637.78,4638.08,3.14126,0.55158,29.9,100,200,10000,0,0,100,200,10000,0,0
3958227,4637.75,4638.05,2.66685,-0.47441,29.9,100,200,10000,0,0,100,200,10000,0,0
3958671,4637.91,4638.21,4.08751,1.42065,29.9,100,200,10000,0,0,100,200,10000,0,0
3958830,4637.82,4638.12,4.01907,-0.06844,29.9,100,200,10000,0,0,100,200,10000,0,0
3958993,4637.81,4638.11,3.70266,-0.31641,29.9,100,200,10000,0,0,100,200,10000,0,0
3959253,4637.83,4638.13,4.52769,0.82502,29.9,100,200,10000,0,0,100,200,10000,0,0
3959740,4637.78,4638.08,6.06118,1.53349,29.9,100,200,10000,0,0,100,200,10000,0,0
3959961,4637.79,4638.09,5.37991,-0.68126,29.9,100,200,10000,0,0,100,200,10000,0,0
3960198,4637.73,4638.03,5.63173,0.25182,29.9,100,200,10000,0,0,100,200,10000,0,0
3960373,4637.76,4638.06,5.75762,0.12589,29.9,100,200,10000,0,0,100,200,10000,0,0
3960613,4637.80,4638.10,5.04792,-0.70970,29.9,100,200,10000,0,0,100,200,10000,0,0
3960846,4637.80,4638.10,5.04792,-0.70970,29.9,100,200,10000,0,0,100,200,10000,0,0
3961106,4637.90,4638.20,5.95138,0.90346,29.9,100,200,10000,0,0,100,200,10000,0,0
3961696,4637.99,4638.29,8.26664,2.31526,29.9,100,200,10000,0,0,100,200,10000,0,0
3961899,4637.95,4638.25,8.94070,0.67406,29.9,100,200,10000,0,0,100,200,10000,0,0
3962412,4638.00,4638.30,8.69102,-0.24968,29.9,100,200,10000,0,0,100,200,10000,0,0
3963010,4638.02,4638.32,8.21408,-0.47694,29.9,100,200,10000,0,0,100,200,10000,0,0
3963200,4638.11,4638.41,9.03470,0.82062,29.9,100,200,10000,0,0,100,200,10000,0,0
3963806,4638.21,4638.51,10.25806,1.22336,29.9,100,200,10000,0,0,100,200,10000,0,0
3964330,4638.23,4638.53,10.34168,0.08362,29.9,100,200,10000,0,0,100,200,10000,0,0
3964593,4638.22,4638.52,9.85267,-0.48901,29.9,100,200,10000,0,0,100,200,10000,0,0
3965478,4638.23,4638.53,7.88213,-1.97053,29.9,100,200,10000,0,0,100,200,10000,0,0
3965690,4638.30,4638.60,7.76158,-0.12056,29.9,100,200,10000,0,0,100,200,10000,0,0
3966153,4638.19,4638.49,6.59412,-1.16745,29.9,100,200,10000,0,0,100,200,10000,0,0
3966550,4638.16,4638.46,6.57762,-0.01650,29.9,100,200,10000,0,0,100,200,10000,0,0
3966838,4638.19,4638.49,7.17182,0.59420,29.9,100,200,10000,0,0,100,200,10000,0,0
3967851,4638.22,4638.52,6.33152,-0.84030,29.9,100,200,10000,0,0,100,200,10000,0,0
3968030,4638.20,4638.50,5.23371,-1.09781,29.9,100,200,10000,0,0,100,200,10000,0,0
3968527,4638.25,4638.55,4.89913,-0.33457,29.9,100,200,10000,0,0,100,200,10000,0,0
3969329,4638.25,4638.55,4.89913,-0.33457,29.9,100,200,10000,0,0,100,200,10000,0,0
3970378,4638.24,4638.54,4.02776,-0.87137,29.9,100,200,10000,0,0,100,200,10000,0,0
3970831,4638.23,4638.53,3.39597,-0.63179,29.9,100,200,10000,0,0,100,200,10000,0,0
3971051,4638.27,4638.57,2.87526,-0.52072,29.9,100,200,10000,0,0,100,200,10000,0,0
3971208,4638.25,4638.55,2.30021,-0.57505,29.9,100,200,10000,0,0,100,200,10000,0,0
3972230,4638.23,4638.53,2.23155,-0.06865,29.9,100,200,10000,0,0,100,200,10000,0,0
3972473,4638.24,4638.54,1.94360,-0.28796,29.9,100,200,10000,0,0,100,200,10000,0,0
3973270,4638.24,4638.54,1.94360,-0.28796,29.9,100,200,10000,0,0,100,200,10000,0,0
3973496,4638.25,4638.55,1.74981,-0.19379,29.9,100,200,10000,0,0,100,200,10000,0,0
3974093,4638.21,4638.51,1.76976,0.01995,30.0,100,200,10000,0,0,100,200,10000,0,0
3974939,4638.17,4638.47,2.52847,0.75870,30.0,100,200,10000,0,0,100,200,10000,0,0
3975312,4638.18,4638.48,2.51579,-0.01268,30.0,100,200,10000,0,0,100,200,10000,0,0
3975482,4638.22,4638.52,2.15672,-0.35907,30.0,100,200,10000,0,0,100,200,10000,0,0
3976098,4638.24,4638.54,2.93645,0.77973,30.0,100,200,10000,0,0,100,200,10000,0,0
3976751,4638.21,4638.51,2.50714,-0.42931,30.0,100,200,10000,0,0,100,200,10000,0,0
3977189,4638.22,4638.52,2.37067,-0.13646,30.0,100,200,10000,0,0,100,200,10000,0,0
3977392,4638.23,4638.53,2.05050,-0.32017,30.0,100,200,10000,0,0,100,200,10000,0,0
3977936,4638.22,4638.52,1.80904,-0.24147,30.0,100,200,10000,0,0,100,200,10000,0,0
3978269,4638.23,4638.53,1.63190,-0.17714,30.0,100,200,10000,0,0,100,200,10000,0,0
3978449,4638.13,4638.43,3.19946,1.56756,30.0,100,200,10000,0,0,100,200,10000,0,0
3978834,4638.08,4638.38,4.64435,1.44489,30.0,100,200,10000,0,0,100,200,10000,0,0
3979129,4638.06,4638.36,6.38883,1.74448,30.0,100,200,10000,0,0,100,200,10000,0,0
3979341,4638.08,4638.38,7.91743,1.52860,30.0,100,200,10000,0,0,100,200,10000,0,0
3979490,4637.98,4638.28,9.20201,1.28458,30.0,100,200,10000,0,0,100,200,10000,0,0
3980336,4637.98,4638.28,9.20201,1.28458,30.0,100,200,10000,0,0,100,200,10000,0,0
3980893,4637.95,4638.25,7.78926,-1.41275,30.0,100,200,10000,0,0,100,200,10000,0,0
3982055,4637.95,4638.25,7.78926,-1.41275,30.0,100,200,10000,0,0,100,200,10000,0,0
3982581,4637.96,4638.25,6.29079,-1.49847,30.0,100,200,10000,0,0,100,200,10000,0,0
3983189,4638.17,4638.47,6.94985,0.65905,30.0,100,200,10000,0,0,100,200,10000,0,0
3983589,4638.14,4638.44,9.21962,2.26977,30.0,100,200,10000,0,0,100,200,10000,0,0
3983805,4638.14,4638.44,9.21962,2.26977,30.0,100,200,10000,0,0,100,200,10000,0,0
3984608,4638.14,4638.44,9.21962,2.26977,30.0,100,200,10000,0,0,100,200,10000,0,0
3986981,4638.16,4638.46,7.49369,-1.72593,30.0,100,200,10000,0,0,100,200,10000,0,0
3988074,4638.14,4638.44,6.36025,-1.13344,30.0,100,200,10000,0,0,100,200,10000,0,0
3988440,4638.18,4638.48,5.36330,-0.99695,30.0,100,200,10000,0,0,100,200,10000,0,0
3988794,4638.23,4638.53,5.06369,-0.29961,30.0,100,200,10000,0,0,100,200,10000,0,0
3989745,4638.23,4638.53,5.06369,-0.29961,30.0,100,200,10000,0,0,100,200,10000,0,0
3989941,4638.22,4638.52,4.22532,-0.83837,30.0,100,200,10000,0,0,100,200,10000,0,0
3990353,4638.23,4638.53,3.38026,-0.84506,30.0,100,200,10000,0,0,100,200,10000,0,0
3990553,4638.19,4638.49,3.15824,-0.22202,30.0,100,200,10000,0,0,100,200,10000,0,0
3991022,4638.23,4638.53,2.71160,-0.44663,30.0,100,200,10000,0,0,100,200,10000,0,0
3991758,4638.25,4638.55,3.16348,0.45188,30.0,100,200,10000,0,0,100,200,10000,0,0
3991951,4638.23,4638.53,3.10385,-0.05963,30.0,100,200,10000,0,0,100,200,10000,0,0
3992234,4638.19,4638.49,3.14369,0.03984,30.0,100,200,10000,0,0,100,200,10000,0,0
3992550,4638.28,4638.58,3.16812,0.02443,30.0,100,200,10000,0,0,100,200,10000,0,0
3993515,4638.28,4638.58,3.16812,0.02443,30.0,100,200,10000,0,0,100,200,10000,0,0
3994063,4638.26,4638.56,2.79922,-0.36890,30.0,100,200,10000,0,0,100,200,10000,0,0
3995672,4638.26,4638.56,2.79922,-0.36890,30.0,100,200,10000,0,0,100,200,10000,0,0
3996235,4638.14,4638.44,3.34741,0.54819,30.0,100,200,10000,0,0,100,200,10000,0,0
3996858,4638.14,4638.42,3.60816,0.26075,29.9,100,200,10000,0,0,100,200,10000,0,0
3997203,4637.99,4638.29,4.60573,0.99757,29.9,100,200,10000,0,0,100,200,10000,0,0
3997531,4638.06,4638.36,4.91252,0.30679,29.9,100,200,10000,0,0,100,200,10000,0,0
3997709,4637.98,4638.28,6.08926,1.17674,29.9,100,200,10000,0,0,100,200,10000,0,0
3997953,4638.00,4638.30,7.24367,1.15441,29.9,100,200,10000,0,0,100,200,10000,0,0
3998114,4638.07,4638.37,6.75187,-0.49180,29.9,100,200,10000,0,0,100,200,10000,0,0
3998639,4638.07,4638.37,6.75187,-0.49180,29.9,100,200,10000,0,0,100,200,10000,0,0
3999412,4638.12,4638.42,6.17132,-0.58055,29.9,100,200,10000,0,0,100,200,10000,0,0
3999882,4638.09,4638.39,5.16317,-1.00815,29.9,100,200,10000,0,0,100,200,10000,0,0
4000536,4638.11,4638.41,4.30816,-0.85501,29.9,100,200,10000,0,0,100,200,10000,0,0
4000747,4638.11,4638.41,4.30816,-0.85501,29.9,100,200,10000,0,0,100,200,10000,0,0
4000912,4638.09,4638.39,3.44653,-0.86163,29.9,100,200,10000,0,0,100,200,10000,0,0
4001076,4638.13,4638.43,3.42668,-0.01985,29.9,100,200,10000,0,0,100,200,10000,0,0
4001894,4638.07,4638.37,3.33131,-0.09537,29.9,100,200,10000,0,0,100,200,10000,0,0
4002111,4637.98,4638.28,5.56640,2.23509,29.9,100,200,10000,0,0,100,200,10000,0,0
4002833,4638.03,4638.29,5.82064,0.25424,29.9,100,200,10000,0,0,100,200,10000,0,0
4003014,4638.28,4638.58,8.40987,2.58922,29.9,100,200,10000,0,0,100,200,10000,0,0
4003233,4638.26,4638.56,11.71898,3.30911,29.9,100,200,10000,0,0,100,200,10000,0,0
4003515,4638.21,4638.51,12.64921,0.93023,29.9,100,200,10000,0,0,100,200,10000,0,0
4003837,4638.24,4638.54,14.70561,2.05640,29.9,100,200,10000,0,0,100,200,10000,0,0
4004372,4638.24,4638.54,14.70561,2.05640,29.9,100,200,10000,0,0,100,200,10000,0,0
4004550,4638.25,4638.55,12.53594,-2.16967,29.9,100,200,10000,0,0,100,200,10000,0,0
4004878,4638.09,4638.39,12.89408,0.35814,29.9,100,200,10000,0,0,100,200,10000,0,0
4005291,4638.16,4638.46,11.41341,-1.48067,29.9,100,200,10000,0,0,100,200,10000,0,0
4006023,4638.13,4638.43,9.84058,-1.57283,29.9,100,200,10000,0,0,100,200,10000,0,0
4006909,4638.17,4638.47,7.99731,-1.84327,29.9,100,200,10000,0,0,100,200,10000,0,0
4007338,4638.19,4638.49,7.30488,-0.69243,29.9,100,200,10000,0,0,100,200,10000,0,0
4007491,4638.28,4638.58,7.86683,0.56195,29.9,100,200,10000,0,0,100,200,10000,0,0
4008335,4638.28,4638.58,7.86683,0.56195,29.9,100,200,10000,0,0,100,200,10000,0,0
4008596,4638.27,4638.57,6.47495,-1.39188,29.9,100,200,10000,0,0,100,200,10000,0,0
4008883,4638.26,4638.56,5.46773,-1.00722,29.9,100,200,10000,0,0,100,200,10000,0,0
4009126,4638.22,4638.52,5.11174,-0.35599,29.9,100,200,10000,0,0,100,200,10000,0,0
4009493,4638.25,4638.55,4.38864,-0.72310,29.9,100,200,10000,0,0,100,200,10000,0,0
4009663,4638.26,4638.56,3.69835,-0.69029,29.9,100,200,10000,0,0,100,200,10000,0,0
4010459,4638.16,4638.46,3.85554,0.15719,29.9,100,200,10000,0,0,100,200,10000,0,0
4011495,4638.15,4638.45,3.27749,-0.57806,29.9,100,200,10000,0,0,100,200,10000,0,0
4011660,4637.96,4638.26,5.96368,2.68619,29.9,100,200,10000,0,0,100,200,10000,0,0
4012545,4637.96,4638.26,5.96368,2.68619,29.9,100,200,10000,0,0,100,200,10000,0,0
4012833,4637.95,4638.25,4.94058,-1.02310,29.9,100,200,10000,0,0,100,200,10000,0,0
4013192,4637.99,4638.29,4.34207,-0.59850,29.9,100,200,10000,0,0,100,200,10000,0,0
4014261,4637.99,4638.29,4.34207,-0.59850,29.9,100,200,10000,0,0,100,200,10000,0,0
4014510,4638.01,4638.31,3.77854,-0.56354,29.9,100,200,10000,0,0,100,200,10000,0,0
4014659,4637.97,4638.27,3.29587,-0.48267,29.9,100,200,10000,0,0,100,200,10000,0,0
4014884,4637.75,4638.05,5.48029,2.18443,29.9,100,200,10000,0,0,100,200,10000,0,0
4015159,4637.77,4638.07,6.62685,1.14655,29.9,100,200,10000,0,0,100,200,10000,0,0
4016169,4637.78,4638.08,5.49891,-1.12794,29.9,100,200,10000,0,0,100,200,10000,0,0
4016362,4637.79,4638.09,4.73108,-0.76783,29.9,100,200,10000,0,0,100,200,10000,0,0
4016606,4637.78,4638.08,3.92241,-0.80866,29.9,100,200,10000,0,0,100,200,10000,0,0
4017475,4637.74,4638.04,4.03640,0.11399,29.9,100,200,10000,0,0,100,200,10000,0,0
4018097,4637.68,4637.98,4.57140,0.53500,29.9,100,200,10000,0,0,100,200,10000,0,0
4018247,4637.90,4638.16,4.87515,0.30375,29.8,100,200,10000,0,0,100,200,10000,0,0
4018413,4637.92,4638.22,5.45395,0.57880,29.8,100,200,10000,0,0,100,200,10000,0,0
4018719,4637.90,4638.20,6.93344,1.47949,29.8,100,200,10000,0,0,100,200,10000,0,0
4019098,4637.91,4638.21,7.64552,0.71208,29.8,100,200,10000,0,0,100,200,10000,0,0
4019743,4637.95,4638.25,7.09873,-0.54679,29.8,100,200,10000,0,0,100,200,10000,0,0
4019905,4638.10,4638.40,9.05167,1.95293,29.8,100,200,10000,0,0,100,200,10000,0,0
4020096,4638.05,4638.35,10.02740,0.97574,29.8,100,200,10000,0,0,100,200,10000,0,0
4020283,4638.00,4638.30,9.53963,-0.48777,29.8,100,200,10000,0,0,100,200,10000,0,0
4020488,4638.09,4638.39,10.21605,0.67642,29.8,100,200,10000,0,0,100,200,10000,0,0
4020740,4638.05,4638.35,10.15894,-0.05711,29.8,100,200,10000,0,0,100,200,10000,0,0
4021101,4638.02,4638.32,9.56084,-0.59810,29.8,100,200,10000,0,0,100,200,10000,0,0
4021335,4638.00,4638.30,7.64868,-1.91217,29.8,100,200,10000,0,0,100,200,10000,0,0
4021909,4638.09,4638.39,6.81580,-0.83287,29.8,100,200,10000,0,0,100,200,10000,0,0
4022125,4638.18,4638.48,8.36969,1.55389,29.8,100,200,10000,0,0,100,200,10000,0,0
4023668,4638.20,4638.50,6.95398,-1.41571,29.8,100,200,10000,0,0,100,200,10000,0,0
4023896,4638.22,4638.52,6.01364,-0.94035,29.8,100,200,10000,0,0,100,200,10000,0,0
4024083,4638.32,4638.62,6.23730,0.22366,29.8,100,200,10000,0,0,100,200,10000,0,0
4024483,4638.36,4638.66,6.51204,0.27474,29.8,100,200,10000,0,0,100,200,10000,0,0
4025563,4638.35,4638.65,5.39533,-1.11671,29.8,100,200,10000,0,0,100,200,10000,0,0
4026955,4638.33,4638.63,4.60341,-0.79192,29.9,100,200,10000,0,0,100,200,10000,0,0
4027447,4638.37,4638.67,3.89505,-0.70837,29.9,100,200,10000,0,0,100,200,10000,0,0
4028383,4638.38,4638.68,3.81339,-0.08166,29.9,100,200,10000,0,0,100,200,10000,0,0
4028624,4638.39,4638.69,3.38998,-0.42341,29.9,100,200,10000,0,0,100,200,10000,0,0
4029375,4638.42,4638.71,3.17855,-0.21143,29.9,100,200,10000,0,0,100,200,10000,0,0
4029573,4638.38,4638.68,2.54284,-0.63571,29.9,100,200,10000,0,0,100,200,10000,0,0
4029907,4638.39,4638.69,2.03427,-0.50857,29.9,100,200,10000,0,0,100,200,10000,0,0
4030239,4638.35,4638.65,2.12339,0.08912,29.9,100,200,10000,0,0,100,200,10000,0,0
4030560,4638.39,4638.69,2.12065,-0.00274,29.9,100,200,10000,0,0,100,200,10000,0,0
4031751,4638.27,4638.57,3.70657,1.58592,29.9,100,200,10000,0,0,100,200,10000,0,0
4032569,4638.27,4638.57,3.70657,1.58592,29.9,100,200,10000,0,0,100,200,10000,0,0
4032738,4638.28,4638.58,3.97582,0.26925,29.9,100,200,10000,0,0,100,200,10000,0,0
4033107,4638.30,4638.60,3.62379,-0.35203,29.9,100,200,10000,0,0,100,200,10000,0,0
4033270,4638.36,4638.66,4.09187,0.46809,29.9,100,200,10000,0,0,100,200,10000,0,0
4034745,4638.36,4638.66,4.09187,0.46809,29.9,100,200,10000,0,0,100,200,10000,0,0
4034960,4638.39,4638.69,3.62665,-0.46523,29.9,100,200,10000,0,0,100,200,10000,0,0
4035163,4638.40,4638.70,3.32237,-0.30428,29.9,100,200,10000,0,0,100,200,10000,0,0
4035445,4638.42,4638.72,3.20760,-0.11477,29.9,100,200,10000,0,0,100,200,10000,0,0
4035680,4638.33,4638.63,2.81422,-0.39338,29.9,100,200,10000,0,0,100,200,10000,0,0
4035943,4638.38,4638.68,2.01390,-0.31684,29.9,100,200,10000,0,0,100,200,10000,0,0
4036269,4638.51,4638.77,3.51011,1.15133,29.8,100,200,10000,0,0,100,200,10000,0,0
4036443,4638.74,4639.04,8.11230,4.60219,29.8,100,200,10000,0,0,100,200,10000,0,0
4036677,4638.73,4639.03,11.53459,3.42229,29.8,100,200,10000,0,0,100,200,10000,0,0
4036845,4638.44,4638.74,10.54223,-0.99236,29.8,100,200,10000,0,0,100,200,10000,0,0
4037459,4638.34,4638.64,15.07921,6.11162,29.8,100,200,10000,0,0,100,200,10000,0,0
4037683,4638.36,4638.66,19.43389,4.35468,29.8,100,200,10000,0,0,100,200,10000,0,0
4037955,4638.34,4638.64,16.69215,-2.74174,29.8,100,200,10000,0,0,100,200,10000,0,0
4038186,4638.22,4638.52,16.17283,-0.51932,29.8,100,200,10000,0,0,100,200,10000,0,0
4038352,4638.45,4638.75,13.63030,-2.54252,29.8,100,200,10000,0,0,100,200,10000,0,0
4038678,4638.42,4638.72,12.10424,-1.52606,29.8,100,200,10000,0,0,100,200,10000,0,0
4038895,4638.40,4638.70,10.34075,-1.76349,29.9,100,200,10000,0,0,100,200,10000,0,0
4040615,4638.44,4638.74,8.73717,-1.60357,29.9,100,200,10000,0,0,100,200,10000,0,0
4041395,4638.37,4638.67,7.22993,-1.50724,29.9,100,200,10000,0,0,100,200,10000,0,0
4042394,4638.28,4638.58,7.58880,0.35886,29.9,100,200,10000,0,0,100,200,10000,0,0
4042538,4638.28,4638.58,7.58880,0.35886,29.9,100,200,10000,0,0,100,200,10000,0,0
4042702,4638.37,4638.67,6.07104,-1.51776,29.9,100,200,10000,0,0,100,200,10000,0,0
4043011,4638.32,4638.62,5.47564,-0.59540,29.9,100,200,10000,0,0,100,200,10000,0,0
4043170,4638.32,4638.62,5.47564,-0.59540,29.9,100,200,10000,0,0,100,200,10000,0,0
4043363,4638.60,4638.90,6.71554,1.23990,29.9,100,200,10000,0,0,100,200,10000,0,0
4043796,4638.45,4638.75,6.83763,0.12209,29.9,100,200,10000,0,0,100,200,10000,0,0
4044731,4638.43,4638.73,7.95912,1.12149,29.9,100,200,10000,0,0,100,200,10000,0,0
4045294,4638.34,4638.64,7.83397,-0.12516,29.9,100,200,10000,0,0,100,200,10000,0,0
4045512,4638.38,4638.68,7.08207,-0.75189,29.9,100,200,10000,0,0,100,200,10000,0,0
4046026,4638.32,4638.62,7.36319,0.28112,29.9,100,200,10000,0,0,100,200,10000,0,0
4048037,4638.29,4638.55,6.38806,-0.97513,29.8,100,200,10000,0,0,100,200,10000,0,0
4048430,4638.15,4638.45,6.52712,0.13905,29.8,100,200,10000,0,0,100,200,10000,0,0
4048777,4638.18,4638.44,6.38618,-0.14094,29.7,100,200,10000,0,0,100,200,10000,0,0
4048954,4638.07,4638.37,6.81659,0.43041,29.7,100,200,10000,0,0,100,200,10000,0,0
4049834,4638.07,4638.37,6.81659,0.43041,29.7,100,200,10000,0,0,100,200,10000,0,0
4050056,4638.14,4638.44,6.72600,-0.09059,29.7,100,200,10000,0,0,100,200,10000,0,0
4051096,4638.08,4638.38,5.52125,-1.20475,29.7,100,200,10000,0,0,100,200,10000,0,0
4051424,4638.09,4638.39,4.60784,-0.91341,29.7,100,200,10000,0,0,100,200,10000,0,0
4051709,4638.14,4638.44,4.58582,-0.02202,29.7,100,200,10000,0,0,100,200,10000,0,0
4052567,4638.14,4638.44,4.58582,-0.02202,29.7,100,200,10000,0,0,100,200,10000,0,0
4053162,4638.12,4638.42,3.94490,-0.64092,29.7,100,200,10000,0,0,100,200,10000,0,0
4053536,4638.10,4638.40,3.62957,-0.31533,29.7,100,200,10000,0,0,100,200,10000,0,0
4053773,4638.17,4638.43,3.00061,-0.62897,29.7,100,200,10000,0,0,100,200,10000,0,0
4054151,4638.37,4638.67,4.28573,1.28512,29.7,100,200,10000,0,0,100,200,10000,0,0
4054335,4638.41,4638.71,8.36056,4.07483,29.7,100,200,10000,0,0,100,200,10000,0,0
4054519,4638.43,4638.73,12.59713,4.23657,29.7,100,200,10000,0,0,100,200,10000,0,0
4055840,4638.43,4638.73,12.59713,4.23657,29.7,100,200,10000,0,0,100,200,10000,0,0
4056272,4638.45,4638.75,10.30536,-2.29177,29.7,100,200,10000,0,0,100,200,10000,0,0
4056707,4638.56,4638.86,9.43259,-0.87277,29.7,100,200,10000,0,0,100,200,10000,0,0
4057027,4638.33,4638.63,8.34289,-1.08971,29.7,100,200,10000,0,0,100,200,10000,0,0
4057362,4638.35,4638.65,8.51424,0.17135,29.7,100,200,10000,0,0,100,200,10000,0,0
4057579,4638.36,4638.66,8.19388,-0.32036,29.7,100,200,10000,0,0,100,200,10000,0,0
4057788,4638.36,4638.64,10.45482,2.26095,29.6,100,200,10000,0,0,100,200,10000,0,0
4058292,4638.14,4638.44,11.36544,0.91062,29.6,100,200,10000,0,0,100,200,10000,0,0
4058457,4638.27,4638.57,10.55354,-0.81190,29.6,100,200,10000,0,0,100,200,10000,0,0
4058992,4638.22,4638.52,10.58275,0.02921,29.6,100,200,10000,0,0,100,200,10000,0,0
4059476,4638.19,4638.49,10.03791,-0.54484,29.6,100,200,10000,0,0,100,200,10000,0,0
4059899,4638.20,4638.50,9.00187,-1.03603,29.6,100,200,10000,0,0,100,200,10000,0,0
4060316,4638.11,4638.41,8.86943,-0.13244,29.6,100,200,10000,0,0,100,200,10000,0,0
4060466,4638.09,4638.39,8.86545,-0.00397,29.6,100,200,10000,0,0,100,200,10000,0,0
4060744,4638.18,4638.48,7.25122,-1.61423,29.7,100,200,10000,0,0,100,200,10000,0,0
4060934,4638.15,4638.45,6.77659,-0.47463,29.7,100,200,10000,0,0,100,200,10000,0,0
4061249,4638.14,4638.44,6.30622,-0.47036,29.7,100,200,10000,0,0,100,200,10000,0,0
4061497,4638.17,4638.47,6.60140,0.29518,29.7,100,200,10000,0,0,100,200,10000,0,0
4061689,4638.14,4638.44,6.09878,-0.50262,29.7,100,200,10000,0,0,100,200,10000,0,0
4061899,4638.10,4638.40,6.25006,0.15128,29.7,100,200,10000,0,0,100,200,10000,0,0
4062056,4638.17,4638.47,5.35341,-0.89666,29.7,100,200,10000,0,0,100,200,10000,0,0
4063080,4638.16,4638.46,4.47785,-0.87556,29.7,100,200,10000,0,0,100,200,10000,0,0
4064505,4638.09,4638.39,4.56542,0.08758,29.7,100,200,10000,0,0,100,200,10000,0,0
4065077,4638.11,4638.41,4.15209,-0.41333,29.7,100,200,10000,0,0,100,200,10000,0,0
4065259,4638.16,4638.46,3.32167,-0.83042,29.7,100,200,10000,0,0,100,200,10000,0,0
4065557,4638.14,4638.44,3.60520,0.28353,29.7,100,200,10000,0,0,100,200,10000,0,0
4066430,4638.10,4638.40,3.90805,0.30285,29.7,100,200,10000,0,0,100,200,10000,0,0
4066617,4637.63,4637.89,13.12644,9.21839,29.6,100,200,10000,0,0,300,500,20000,0,0
4066816,4637.64,4637.94,18.45660,5.33016,29.6,100,200,10000,0,0,100,200,10000,0,0
4067016,4637.14,4637.44,28.48270,10.02610,29.6,100,200,10000,0,0,100,200,10000,0,0
4067537,4637.31,4637.61,37.05897,8.57627,29.6,100,200,10000,0,0,100,200,10000,0,0
4067704,4637.34,4637.64,34.63794,-2.42104,29.6,100,200,10000,0,0,100,200,10000,0,0
4067897,4637.49,4637.79,30.49070,-4.14724,29.6,100,200,10000,0,0,100,200,10000,0,0
4068057,4637.50,4637.80,31.30235,0.81165,29.6,100,200,10000,0,0,100,200,10000,0,0
4068390,4637.43,4637.73,29.26006,-2.04229,29.6,100,200,10000,0,0,100,200,10000,0,0
4068673,4637.45,4637.75,25.87284,-3.38722,29.6,100,200,10000,0,0,100,200,10000,0,0
4068844,4637.51,4637.81,23.67290,-2.19994,29.6,100,200,10000,0,0,100,200,10000,0,0
4068998,4637.51,4637.81,23.67290,-2.19994,29.6,100,200,10000,0,0,100,200,10000,0,0
4069734,4637.50,4637.80,19.87905,-3.79385,29.7,100,200,10000,0,0,100,200,10000,0,0
4069930,4637.50,4637.80,19.87905,-3.79385,29.7,100,200,10000,0,0,100,200,10000,0,0
4070127,4637.39,4637.69,17.77240,-2.10665,29.7,100,200,10000,0,0,100,200,10000,0,0
4070456,4637.44,4637.73,15.14902,-2.62338,29.8,100,200,10000,0,0,100,200,10000,0,0
4070723,4637.38,4637.68,13.50810,-1.64092,29.8,100,200,10000,0,0,100,200,10000,0,0
4070940,4637.22,4637.52,15.45379,1.94568,29.8,100,200,10000,0,0,100,200,10000,0,0
4071163,4637.17,4637.47,16.60195,1.14816,29.8,100,200,10000,0,0,100,200,10000,0,0
4071467,4637.25,4637.55,16.95584,0.35389,29.8,100,200,10000,0,0,100,200,10000,0,0
4071675,4637.27,4637.57,16.26959,-0.68625,29.8,100,200,10000,0,0,100,200,10000,0,0
4072184,4637.30,4637.60,15.56970,-0.69989,29.8,100,200,10000,0,0,100,200,10000,0,0
4072341,4637.26,4637.56,13.98507,-1.58463,29.8,100,200,10000,0,0,100,200,10000,0,0
4073284,4637.34,4637.64,11.91467,-2.07040,29.9,100,200,10000,0,0,100,200,10000,0,0
4073628,4637.23,4637.53,9.99866,-1.91601,29.9,100,200,10000,0,0,100,200,10000,0,0
4074499,4637.24,4637.54,9.65319,-0.34547,29.9,100,200,10000,0,0,100,200,10000,0,0
4074758,4637.20,4637.50,8.25447,-1.39872,29.9,100,200,10000,0,0,100,200,10000,0,0
4075033,4637.23,4637.53,6.60357,-1.65089,29.9,100,200,10000,0,0,100,200,10000,0,0
4075181,4637.32,4637.62,6.44191,-0.16167,29.9,100,200,10000,0,0,100,200,10000,0,0
4075421,4637.37,4637.67,6.71515,0.27325,29.9,100,200,10000,0,0,100,200,10000,0,0
4075637,4637.26,4637.56,5.72269,-0.99246,29.9,100,200,10000,0,0,100,200,10000,0,0
4075817,4637.29,4637.59,6.27627,0.55357,29.9,100,200,10000,0,0,100,200,10000,0,0
4075976,4637.22,4637.52,5.34942,-0.92685,29.9,100,200,10000,0,0,100,200,10000,0,0
4076304,4637.23,4637.53,5.88525,0.53583,29.9,100,200,10000,0,0,100,200,10000,0,0
4076616,4637.28,4637.58,6.21321,0.32797,29.9,100,200,10000,0,0,100,200,10000,0,0
4076796,4637.29,4637.59,5.48781,-0.72540,29.9,100,200,10000,0,0,100,200,10000,0,0
4077573,4637.33,4637.63,5.96258,0.47476,29.9,100,200,10000,0,0,100,200,10000,0,0
4077801,4637.27,4637.57,5.16926,-0.79331,29.9,100,200,10000,0,0,100,200,10000,0,0
4077955,4637.26,4637.56,4.65444,-0.51482,29.9,100,200,10000,0,0,100,200,10000,0,0
4078151,4637.24,4637.54,4.46156,-0.19288,29.9,100,200,10000,0,0,100,200,10000,0,0
4078375,4637.22,4637.52,4.45645,-0.00511,29.9,100,200,10000,0,0,100,200,10000,0,0
4078536,4637.25,4637.55,4.02387,-0.43257,29.9,100,200,10000,0,0,100,200,10000,0,0
4078768,4637.17,4637.47,5.89245,1.86858,29.9,100,200,10000,0,0,100,200,10000,0,0
4078968,4637.27,4637.57,4.91120,-0.98125,29.9,100,200,10000,0,0,100,200,10000,0,0
4079155,4637.24,4637.54,3.92896,-0.98224,29.9,100,200,10000,0,0,100,200,10000,0,0
4079341,4637.24,4637.54,3.92896,-0.98224,29.9,100,200,10000,0,0,100,200,10000,0,0
4079560,4637.25,4637.55,3.14317,-0.78579,29.9,100,200,10000,0,0,100,200,10000,0,0
4079742,4637.23,4637.53,2.84759,-0.29558,29.9,100,200,10000,0,0,100,200,10000,0,0
4079954,4637.27,4637.57,3.96726,1.11967,29.9,100,200,10000,0,0,100,200,10000,0,0
4080165,4637.27,4637.57,3.96726,1.11967,29.9,100,200,10000,0,0,100,200,10000,0,0
4080697,4637.21,4637.51,3.87680,-0.09046,29.9,100,200,10000,0,0,100,200,10000,0,0
4080899,4637.27,4637.57,3.79228,-0.08451,29.9,100,200,10000,0,0,100,200,10000,0,0
4081073,4637.29,4637.59,3.39065,-0.40163,29.9,100,200,10000,0,0,100,200,10000,0,0
4081377,4637.21,4637.51,3.90610,0.07981,29.9,100,200,10000,0,0,100,200,10000,0,0
4081677,4637.23,4637.53,3.58999,-0.31610,30.0,100,200,10000,0,0,100,200,10000,0,0
4081854,4637.24,4637.54,3.38968,-0.20031,30.0,100,200,10000,0,0,100,200,10000,0,0
4082173,4637.23,4637.53,3.80764,0.41795,30.0,100,200,10000,0,0,100,200,10000,0,0
4082587,4637.24,4637.54,3.54198,-0.26566,30.0,100,200,10000,0,0,100,200,10000,0,0
4083076,4637.29,4637.59,3.65460,0.11262,30.0,100,200,10000,0,0,100,200,10000,0,0
4083774,4637.30,4637.60,3.93293,0.27833,30.0,100,200,10000,0,0,100,200,10000,0,0
4083974,4637.31,4637.61,4.15426,0.22133,30.0,100,200,10000,0,0,100,200,10000,0,0
4084416,4637.23,4637.53,4.22431,0.07005,30.0,100,200,10000,0,0,100,200,10000,0,0
4085491,4637.24,4637.54,3.56395,-0.66036,30.0,100,200,10000,0,0,100,200,10000,0,0
4085886,4637.21,4637.51,3.12070,-0.44325,30.0,100,200,10000,0,0,100,200,10000,0,0
4086220,4637.13,4637.43,3.59910,0.47840,30.0,100,200,10000,0,0,100,200,10000,0,0
4086449,4636.48,4636.90,9.64730,6.04820,30.2,100,200,10000,0,0,100,200,10000,0,0
4086697,4636.50,4636.80,19.97965,10.33235,30.2,100,200,10000,0,0,100,200,10000,0,0
4086855,4636.65,4636.95,24.60315,4.62350,30.2,100,200,10000,0,0,100,200,10000,0,0
4087654,4636.61,4636.91,20.83668,-3.76647,30.2,100,200,10000,0,0,100,200,10000,0,0
4087815,4636.60,4636.90,18.45666,-2.38003,30.2,100,200,10000,0,0,100,200,10000,0,0
4087994,4636.62,4636.92,15.29303,-3.16363,30.2,100,200,10000,0,0,100,200,10000,0,0
4088169,4636.62,4636.92,15.29303,-3.16363,30.2,100,200,10000,0,0,100,200,10000,0,0
4088373,4636.58,4636.88,13.15791,-2.13512,30.2,100,200,10000,0,0,100,200,10000,0,0
4088850,4636.55,4636.85,11.48879,-1.66912,30.2,100,200,10000,0,0,100,200,10000,0,0
4089393,4636.50,4636.80,10.75506,-0.73373,30.2,100,200,10000,0,0,100,200,10000,0,0
4089682,4636.48,4636.78,10.14015,-0.61491,30.2,100,200,10000,0,0,100,200,10000,0,0
4089863,4636.53,4636.83,8.78962,-1.35052,30.2,100,200,10000,0,0,100,200,10000,0,0
4090044,4636.50,4636.80,7.87701,-0.91262,30.2,100,200,10000,0,0,100,200,10000,0,0
4090520,4636.45,4636.75,7.19049,-0.68651,30.2,100,200,10000,0,0,100,200,10000,0,0
4091171,4636.44,4636.74,6.80873,-0.38176,30.2,100,200,10000,0,0,100,200,10000,0,0
4091336,4636.49,4636.79,5.60095,-1.20778,30.2,100,200,10000,0,0,100,200,10000,0,0
4091508,4636.57,4636.87,5.43249,-0.16846,30.2,100,200,10000,0,0,100,200,10000,0,0
4091736,4636.54,4636.84,5.83114,0.39865,30.2,100,200,10000,0,0,100,200,10000,0,0
4091966,4636.48,4636.78,5.07985,-0.75129,30.2,100,200,10000,0,0,100,200,10000,0,0
4092138,4636.41,4636.71,4.55771,-0.52214,30.2,100,200,10000,0,0,100,200,10000,0,0
4092935,4636.41,4636.71,4.55771,-0.52214,30.2,100,200,10000,0,0,100,200,10000,0,0
4093152,4636.40,4636.70,3.84438,-0.71333,30.2,100,200,10000,0,0,100,200,10000,0,0
4093515,4636.37,4636.67,3.65860,-0.18579,30.2,100,200,10000,0,0,100,200,10000,0,0
4093681,4636.41,4636.71,2.92688,-0.73172,30.2,100,200,10000,0,0,100,200,10000,0,0
4093873,4636.24,4636.54,4.31480,1.38793,30.2,100,200,10000,0,0,100,200,10000,0,0
4094241,4636.22,4636.52,6.77594,2.46114,30.2,100,200,10000,0,0,100,200,10000,0,0
4094550,4636.39,4636.69,5.80537,-0.97057,30.2,100,200,10000,0,0,100,200,10000,0,0
4094738,4636.46,4636.76,5.58680,-0.21857,30.2,100,200,10000,0,0,100,200,10000,0,0
4095072,4636.41,4636.71,7.28168,1.69488,30.2,100,200,10000,0,0,100,200,10000,0,0
4095339,4636.46,4636.76,10.24931,2.96763,30.2,100,200,10000,0,0,100,200,10000,0,0
4095473,4636.53,4636.83,13.20348,2.95417,30.2,100,200,10000,0,0,100,200,10000,0,0
4095928,4636.50,4636.80,11.24190,-1.96158,30.2,100,200,10000,0,0,100,200,10000,0,0
4096107,4636.49,4636.79,10.54541,-0.69649,30.2,100,200,10000,0,0,100,200,10000,0,0
4096345,4636.22,4636.48,13.53937,2.99396,30.2,100,200,10000,0,0,100,200,10000,0,0
4096559,4635.95,4636.25,21.49326,7.95389,30.2,100,200,10000,0,0,100,200,10000,0,0
4097145,4635.96,4636.26,27.36736,5.87409,30.2,100,200,10000,0,0,100,200,10000,0,0
4097466,4635.98,4636.28,25.84716,-1.52019,30.2,100,200,10000,0,0,100,200,10000,0,0
4097877,4636.02,4636.32,21.74156,-4.10560,30.2,100,200,10000,0,0,100,200,10000,0,0
4098196,4635.96,4636.26,17.39325,-4.34831,30.2,100,200,10000,0,0,100,200,10000,0,0
4099522,4635.92,4636.22,14.51837,-2.87488,30.2,100,200,10000,0,0,100,200,10000,0,0
4099751,4635.91,4636.21,12.25572,-2.26265,30.2,100,200,10000,0,0,100,200,10000,0,0
4100211,4635.95,4636.25,9.90369,-2.35204,30.2,100,200,10000,0,0,100,200,10000,0,0
4100746,4635.94,4636.24,8.24975,-1.65394,30.2,100,200,10000,0,0,100,200,10000,0,0
4100934,4635.98,4636.25,7.53438,-0.71537,30.1,100,200,10000,0,0,100,200,10000,0,0
4101357,4636.24,4636.54,11.08858,3.55421,30.1,100,200,10000,0,0,100,200,10000,0,0
4101568,4636.24,4636.54,11.08858,3.55421,30.1,100,200,10000,0,0,100,200,10000,0,0
4101750,4636.31,4636.61,16.21214,5.12355,30.1,100,200,10000,0,0,100,200,10000,0,0
4102132,4636.30,4636.60,18.54839,2.33626,30.1,100,200,10000,0,0,100,200,10000,0,0
4102481,4636.31,4636.61,16.08760,-2.46079,30.1,100,200,10000,0,0,100,200,10000,0,0
4103213,4636.25,4636.55,13.80641,-2.28119,30.1,100,200,10000,0,0,100,200,10000,0,0
4104037,4636.23,4636.53,12.07473,-1.73168,30.1,100,200,10000,0,0,100,200,10000,0,0
4105126,4636.25,4636.55,9.65978,-2.41495,30.1,100,200,10000,0,0,100,200,10000,0,0
4106656,4636.24,4636.54,7.82889,-1.83090,30.1,100,200,10000,0,0,100,200,10000,0,0
4107317,4636.16,4636.46,6.93853,-0.89036,29.9,100,200,10000,0,0,100,200,10000,0,0
4107553,4636.24,4636.54,5.61977,-1.31876,29.9,100,200,10000,0,0,100,200,10000,0,0
4107775,4636.25,4636.55,4.67141,-0.94836,29.9,100,200,10000,0,0,100,200,10000,0,0
4108056,4636.26,4636.56,4.01882,-0.65259,29.9,100,200,10000,0,0,100,200,10000,0,0
4108469,4636.34,4636.64,6.35641,2.33760,29.9,100,200,10000,0,0,100,200,10000,0,0
4108732,4636.39,4636.69,7.66689,1.31047,29.9,100,200,10000,0,0,100,200,10000,0,0
4109053,4636.36,4636.66,7.85226,0.18537,29.9,100,200,10000,0,0,100,200,10000,0,0
4109321,4636.46,4636.76,9.44386,1.59160,29.9,100,200,10000,0,0,100,200,10000,0,0
4109481,4636.50,4636.80,10.73285,1.28898,29.9,100,200,10000,0,0,100,200,10000,0,0
4109640,4636.62,4636.92,13.36036,2.62751,29.9,100,200,10000,0,0,100,200,10000,0,0
4109947,4636.59,4636.89,13.93768,0.57732,29.9,100,200,10000,0,0,100,200,10000,0,0
4110174,4636.25,4636.55,13.12324,-0.81444,29.9,100,200,10000,0,0,100,200,10000,0,0
4111267,4636.31,4636.61,15.20052,2.07728,29.9,100,200,10000,0,0,100,200,10000,0,0
4111308,4636.32,4636.62,13.39390,-1.80662,29.9,100,200,10000,0,0,100,200,10000,0,0
4111519,4635.98,4636.28,14.75703,1.36314,29.9,100,200,10000,0,0,100,200,10000,0,0
4111883,4636.00,4636.30,14.72619,-0.03085,29.9,100,200,10000,0,0,100,200,10000,0,0
4112105,4635.98,4636.28,14.58615,-0.14004,29.9,100,200,10000,0,0,100,200,10000,0,0
4112314,4636.01,4636.31,17.81361,3.22747,29.9,100,200,10000,0,0,100,200,10000,0,0
4112526,4636.00,4636.30,14.64693,-3.16668,29.9,100,200,10000,0,0,100,200,10000,0,0
4112907,4636.01,4636.31,11.91172,-2.73521,29.9,100,200,10000,0,0,100,200,10000,0,0
4113138,4636.01,4636.31,11.91172,-2.73521,29.9,100,200,10000,0,0,100,200,10000,0,0
4113339,4636.00,4636.30,9.72545,-2.18627,29.9,100,200,10000,0,0,100,200,10000,0,0
4113575,4636.02,4636.32,8.16023,-1.56522,29.9,100,200,10000,0,0,100,200,10000,0,0
4113820,4636.01,4636.31,6.68358,-1.47665,29.9,100,200,10000,0,0,100,200,10000,0,0
4114109,4635.97,4636.27,6.02311,-0.66047,29.9,100,200,10000,0,0,100,200,10000,0,0
4114289,4636.06,4636.36,5.55271,-0.47041,29.9,100,200,10000,0,0,100,200,10000,0,0
4114483,4636.01,4636.31,4.61745,-0.93526,29.9,100,200,10000,0,0,100,200,10000,0,0
4114797,4636.00,4636.30,4.01996,-0.59749,29.9,100,200,10000,0,0,100,200,10000,0,0
4115094,4636.02,4636.32,4.21597,0.19601,29.9,100,200,10000,0,0,100,200,10000,0,0
4115259,4636.03,4636.33,4.40548,0.18951,29.9,100,200,10000,0,0,100,200,10000,0,0
4115447,4636.13,4636.43,4.71486,0.30938,29.9,100,200,10000,0,0,100,200,10000,0,0
4115641,4636.17,4636.47,6.54485,1.82999,29.9,100,200,10000,0,0,100,200,10000,0,0
4116174,4636.17,4636.47,6.54485,1.82999,29.9,100,200,10000,0,0,100,200,10000,0,0
4116344,4636.20,4636.50,8.36375,1.81891,29.9,100,200,10000,0,0,100,200,10000,0,0
4117417,4636.21,4636.51,6.87740,-1.48636,29.9,100,200,10000,0,0,100,200,10000,0,0
4117570,4636.11,4636.41,6.96652,0.08913,29.9,100,200,10000,0,0,100,200,10000,0,0
4117838,4636.06,4636.36,7.44613,0.47961,29.9,100,200,10000,0,0,100,200,10000,0,0
4118298,4635.99,4636.29,8.10744,0.66131,29.9,100,200,10000,0,0,100,200,10000,0,0
4118554,4636.07,4636.37,8.94641,0.83897,29.9,100,200,10000,0,0,100,200,10000,0,0
4118840,4636.06,4636.36,7.15713,-1.78928,29.9,100,200,10000,0,0,100,200,10000,0,0
4119450,4636.01,4636.31,6.07323,-1.08390,29.9,100,200,10000,0,0,100,200,10000,0,0
4119997,4635.96,4636.26,6.58868,0.51546,29.9,100,200,10000,0,0,100,200,10000,0,0
4120316,4636.05,4636.35,5.40709,-1.18159,29.9,100,200,10000,0,0,100,200,10000,0,0
4121107,4636.04,4636.34,5.78553,0.37844,30.0,100,200,10000,0,0,100,200,10000,0,0
4121286,4636.05,4636.35,6.04575,0.26022,30.0,100,200,10000,0,0,100,200,10000,0,0
4121965,4636.02,4636.32,5.20134,-0.84441,30.0,100,200,10000,0,0,100,200,10000,0,0
4122891,4636.03,4636.33,4.40768,-0.79366,30.0,100,200,10000,0,0,100,200,10000,0,0
4123072,4636.11,4636.41,5.13760,0.72992,30.0,100,200,10000,0,0,100,200,10000,0,0
4123294,4636.07,4636.37,4.85859,-0.27902,30.0,100,200,10000,0,0,100,200,10000,0,0
4124075,4636.04,4636.34,4.05607,-0.80251,30.0,100,200,10000,0,0,100,200,10000,0,0
4124464,4636.06,4636.36,3.41580,-0.64027,30.0,100,200,10000,0,0,100,200,10000,0,0
4124957,4636.02,4636.32,3.33360,-0.08220,30.0,100,200,10000,0,0,100,200,10000,0,0
4125114,4636.04,4636.33,2.76313,-0.57047,30.0,100,200,10000,0,0,100,200,10000,0,0
4125787,4636.03,4636.33,2.66402,-0.09911,30.0,100,200,10000,0,0,100,200,10000,0,0
4126236,4635.88,4636.18,4.89168,2.22766,30.0,100,200,10000,0,0,100,200,10000,0,0
4126424,4635.94,4636.24,5.36262,0.47094,30.0,100,200,10000,0,0,100,200,10000,0,0
4126876,4635.96,4636.26,5.57568,0.21306,30.0,100,200,10000,0,0,100,200,10000,0,0
4127083,4636.00,4636.30,4.92350,-0.65217,30.0,100,200,10000,0,0,100,200,10000,0,0
4127428,4636.04,4636.34,6.64151,1.71800,30.0,100,200,10000,0,0,100,200,10000,0,0
4127916,4636.05,4636.35,7.04397,0.40247,30.0,100,200,10000,0,0,100,200,10000,0,0
4128071,4636.05,4636.35,7.04397,0.40247,30.0,100,200,10000,0,0,100,200,10000,0,0
4128313,4636.08,4636.38,6.93494,-0.10904,30.0,100,200,10000,0,0,100,200,10000,0,0
4128545,4636.09,4636.39,6.43763,-0.49731,30.0,100,200,10000,0,0,100,200,10000,0,0
4128807,4636.08,4636.38,5.72856,-0.70907,30.0,100,200,10000,0,0,100,200,10000,0,0
4129355,4636.02,4636.32,5.73669,0.00814,30.0,100,200,10000,0,0,100,200,10000,0,0
4130379,4636.04,4636.34,4.97922,-0.75747,30.0,100,200,10000,0,0,100,200,10000,0,0
4130656,4636.09,4636.39,5.05947,0.08025,30.0,100,200,10000,0,0,100,200,10000,0,0
4132300,4636.02,4636.32,4.89709,-0.16238,30.0,100,200,10000,0,0,100,200,10000,0,0
4133342,4636.06,4636.36,4.68616,-0.21093,30.0,100,200,10000,0,0,100,200,10000,0,0
4133612,4636.08,4636.38,4.66356,-0.02260,30.0,100,200,10000,0,0,100,200,10000,0,0
4133955,4636.12,4636.42,4.94224,0.27867,30.0,100,200,10000,0,0,100,200,10000,0,0
4134122,4636.19,4636.49,5.82192,0.87968,30.0,100,200,10000,0,0,100,200,10000,0,0
4134321,4636.23,4636.53,6.73881,0.91688,30.0,100,200,10000,0,0,100,200,10000,0,0
4134474,4636.16,4636.46,7.16096,0.42215,30.0,100,200,10000,0,0,100,200,10000,0,0
4134696,4636.19,4636.49,7.76580,0.60485,30.0,100,200,10000,0,0,100,200,10000,0,0
4135117,4636.26,4636.56,8.61608,0.85027,30.0,100,200,10000,0,0,100,200,10000,0,0
4135436,4636.25,4636.55,7.25160,-1.36447,30.0,100,200,10000,0,0,100,200,10000,0,0
4135618,4636.24,4636.54,7.20111,-0.05050,30.0,100,200,10000,0,0,100,200,10000,0,0
4135781,4636.28,4636.58,7.41835,0.21724,30.0,100,200,10000,0,0,100,200,10000,0,0
4135925,4636.28,4636.58,7.41835,0.21724,30.0,100,200,10000,0,0,100,200,10000,0,0
4136151,4636.25,4636.55,6.12810,-1.29025,30.0,100,200,10000,0,0,100,200,10000,0,0
4136689,4636.23,4636.53,5.08922,-1.03888,30.0,100,200,10000,0,0,100,200,10000,0,0
4137041,4636.21,4636.51,5.17985,0.09063,30.0,100,200,10000,0,0,100,200,10000,0,0
4138600,4636.18,4636.48,4.52973,-0.65012,30.0,100,200,10000,0,0,100,200,10000,0,0
